[
  {
    "slug": "shinjuku",
    "name_en": "Shinjuku",
    "name_jp": "新宿",
    "lat": 35.689729,
    "lng": 139.700464,
    "lines": [
      "11302",
      "11311",
      "11312",
      "11313",
      "11321",
      "11328",
      "11333",
      "24001",
      "24007",
      "25001",
      "28002",
      "99301",
      "99304"
    ],
    "line_count": 13,
    "prefecture": "13",
    "ratings": null,
    "rent_avg": null,
    "transit_minutes": null
  },
  {
    "slug": "tokyo",
    "name_en": "Tokyo",
    "name_jp": "東京",
    "lat": 35.681391,
    "lng": 139.766103,
    "lines": [
      "11301",
      "11302",
      "11308",
      "11311",
      "11312",
      "11314",
      "11326",
      "11328",
      "11332",
      "11343",
      "28002"
    ],
    "line_count": 11,
    "prefecture": "13",
    "ratings": null,
    "rent_avg": null,
    "transit_minutes": null
  },
  {
    "slug": "yokohama",
    "name_en": "Yokohama",
    "name_jp": "横浜",
    "lat": 35.466195,
    "lng": 139.622704,
    "lines": [
      "11301",
      "11307",
      "11308",
      "11328",
      "11332",
      "11333",
      "26001",
      "27001",
      "29001",
      "99310",
      "99316"
    ],
    "line_count": 11,
    "prefecture": "14",
    "ratings": null,
    "rent_avg": null,
    "transit_minutes": null
  },
  {
    "slug": "shibuya",
    "name_en": "Shibuya",
    "name_jp": "渋谷",
    "lat": 35.658871,
    "lng": 139.701238,
    "lines": [
      "11302",
      "11321",
      "11328",
      "11333",
      "24006",
      "26001",
      "26003",
      "28001",
      "28008",
      "28010"
    ],
    "line_count": 10,
    "prefecture": "13",
    "ratings": null,
    "rent_avg": null,
    "transit_minutes": null
  },
  {
    "slug": "chiba",
    "name_en": "Chiba",
    "name_jp": "千葉",
    "lat": 35.613425,
    "lng": 140.112837,
    "lines": [
      "11313",
      "11314",
      "11314",
      "11324",
      "11325",
      "11328",
      "23004",
      "99331",
      "99332"
    ],
    "line_count": 9,
    "prefecture": "12",
    "ratings": null,
    "rent_avg": null,
    "transit_minutes": null
  },
  {
    "slug": "ikebukuro",
    "name_en": "Ikebukuro",
    "name_jp": "池袋",
    "lat": 35.730256,
    "lng": 139.711086,
    "lines": [
      "11302",
      "11321",
      "11328",
      "11333",
      "21001",
      "22001",
      "28002",
      "28006",
      "28010"
    ],
    "line_count": 9,
    "prefecture": "13",
    "ratings": null,
    "rent_avg": null,
    "transit_minutes": null
  },
  {
    "slug": "omiya",
    "name_en": "Omiya",
    "name_jp": "大宮",
    "lat": 35.906439,
    "lng": 139.62405,
    "lines": [
      "11319",
      "11321",
      "11322",
      "11323",
      "11328",
      "11332",
      "11333",
      "21004",
      "99321"
    ],
    "line_count": 9,
    "prefecture": "11",
    "ratings": null,
    "rent_avg": null,
    "transit_minutes": null
  },
  {
    "slug": "ueno",
    "name_en": "Ueno",
    "name_jp": "上野",
    "lat": 35.71379,
    "lng": 139.777043,
    "lines": [
      "11302",
      "11319",
      "11320",
      "11323",
      "11332",
      "11343",
      "28001",
      "28003"
    ],
    "line_count": 8,
    "prefecture": "13",
    "ratings": null,
    "rent_avg": null,
    "transit_minutes": null
  },
  {
    "slug": "shimbashi",
    "name_en": "Shimbashi",
    "name_jp": "新橋",
    "lat": 35.666195,
    "lng": 139.758587,
    "lines": [
      "11301",
      "11302",
      "11308",
      "11332",
      "28001",
      "99302",
      "99311"
    ],
    "line_count": 7,
    "prefecture": "13",
    "ratings": null,
    "rent_avg": null,
    "transit_minutes": null
  },
  {
    "slug": "kita-senju",
    "name_en": "Kita-Senju",
    "name_jp": "北千住",
    "lat": 35.749677,
    "lng": 139.804872,
    "lines": [
      "11320",
      "11320",
      "21002",
      "28003",
      "28005",
      "99309"
    ],
    "line_count": 6,
    "prefecture": "13",
    "ratings": null,
    "rent_avg": null,
    "transit_minutes": null
  },
  {
    "slug": "musashi-kosugi",
    "name_en": "Musashi-Kosugi",
    "name_jp": "武蔵小杉",
    "lat": 35.57669,
    "lng": 139.65963,
    "lines": [
      "11303",
      "11308",
      "11328",
      "11333",
      "26001",
      "26002"
    ],
    "line_count": 6,
    "prefecture": "14",
    "ratings": null,
    "rent_avg": null,
    "transit_minutes": null
  },
  {
    "slug": "narita",
    "name_en": "Narita",
    "name_jp": "成田",
    "lat": 35.777796,
    "lng": 140.313853,
    "lines": [
      "11327",
      "11327",
      "11327",
      "11328",
      "23001",
      "23001"
    ],
    "line_count": 6,
    "prefecture": "12",
    "ratings": null,
    "rent_avg": null,
    "transit_minutes": null
  },
  {
    "slug": "nippori",
    "name_en": "Nippori",
    "name_jp": "日暮里",
    "lat": 35.727908,
    "lng": 139.771287,
    "lines": [
      "11302",
      "11320",
      "11332",
      "23001",
      "23006",
      "99342"
    ],
    "line_count": 6,
    "prefecture": "13",
    "ratings": null,
    "rent_avg": null,
    "transit_minutes": null
  },
  {
    "slug": "ofuna",
    "name_en": "Ofuna",
    "name_jp": "大船",
    "lat": 35.353466,
    "lng": 139.531127,
    "lines": [
      "11301",
      "11307",
      "11308",
      "11328",
      "11333",
      "99326"
    ],
    "line_count": 6,
    "prefecture": "14",
    "ratings": null,
    "rent_avg": null,
    "transit_minutes": null
  },
  {
    "slug": "shinagawa",
    "name_en": "Shinagawa",
    "name_jp": "品川",
    "lat": 35.62876,
    "lng": 139.738999,
    "lines": [
      "11301",
      "11302",
      "11308",
      "11328",
      "11332",
      "27001"
    ],
    "line_count": 6,
    "prefecture": "13",
    "ratings": null,
    "rent_avg": null,
    "transit_minutes": null
  },
  {
    "slug": "akabane",
    "name_en": "Akabane",
    "name_jp": "赤羽",
    "lat": 35.778026,
    "lng": 139.720928,
    "lines": [
      "11319",
      "11321",
      "11323",
      "11332",
      "11333"
    ],
    "line_count": 5,
    "prefecture": "13",
    "ratings": null,
    "rent_avg": null,
    "transit_minutes": null
  },
  {
    "slug": "akihabara",
    "name_en": "Akihabara",
    "name_jp": "秋葉原",
    "lat": 35.698619,
    "lng": 139.773288,
    "lines": [
      "11302",
      "11313",
      "11332",
      "28003",
      "99309"
    ],
    "line_count": 5,
    "prefecture": "13",
    "ratings": null,
    "rent_avg": null,
    "transit_minutes": null
  },
  {
    "slug": "hachioji",
    "name_en": "Hachioji",
    "name_jp": "八王子",
    "lat": 35.655555,
    "lng": 139.338998,
    "lines": [
      "11306",
      "11311",
      "11312",
      "11317",
      "11328"
    ],
    "line_count": 5,
    "prefecture": "13",
    "ratings": null,
    "rent_avg": null,
    "transit_minutes": null
  },
  {
    "slug": "iidabashi",
    "name_en": "Iidabashi",
    "name_jp": "飯田橋",
    "lat": 35.701835,
    "lng": 139.745143,
    "lines": [
      "11313",
      "28004",
      "28006",
      "28009",
      "99301"
    ],
    "line_count": 5,
    "prefecture": "13",
    "ratings": null,
    "rent_avg": null,
    "transit_minutes": null
  },
  {
    "slug": "keisei-takasago",
    "name_en": "Keisei-Takasago",
    "name_jp": "京成高砂",
    "lat": 35.750932,
    "lng": 139.866875,
    "lines": [
      "23001",
      "23002",
      "23003",
      "23006",
      "99340"
    ],
    "line_count": 5,
    "prefecture": "13",
    "ratings": null,
    "rent_avg": null,
    "transit_minutes": null
  },
  {
    "slug": "kichijoji",
    "name_en": "Kichijoji",
    "name_jp": "吉祥寺",
    "lat": 35.703119,
    "lng": 139.579765,
    "lines": [
      "11311",
      "11312",
      "11313",
      "11328",
      "24006"
    ],
    "line_count": 5,
    "prefecture": "13",
    "ratings": null,
    "rent_avg": null,
    "transit_minutes": null
  },
  {
    "slug": "kokubunji",
    "name_en": "Kokubunji",
    "name_jp": "国分寺",
    "lat": 35.700123,
    "lng": 139.480841,
    "lines": [
      "11311",
      "11312",
      "11328",
      "22010",
      "22011"
    ],
    "line_count": 5,
    "prefecture": "13",
    "ratings": null,
    "rent_avg": null,
    "transit_minutes": null
  },
  {
    "slug": "nagatacho",
    "name_en": "Nagatacho",
    "name_jp": "永田町",
    "lat": 35.677021,
    "lng": 139.737047,
    "lines": [
      "28001",
      "28002",
      "28006",
      "28008",
      "28009"
    ],
    "line_count": 5,
    "prefecture": "13",
    "ratings": null,
    "rent_avg": null,
    "transit_minutes": null
  },
  {
    "slug": "nishi-funabashi",
    "name_en": "Nishi-Funabashi",
    "name_jp": "西船橋",
    "lat": 35.707283,
    "lng": 139.959536,
    "lines": [
      "11305",
      "11313",
      "11326",
      "28004",
      "99338"
    ],
    "line_count": 5,
    "prefecture": "12",
    "ratings": null,
    "rent_avg": null,
    "transit_minutes": null
  },
  {
    "slug": "okachimachi",
    "name_en": "Okachimachi",
    "name_jp": "御徒町",
    "lat": 35.707282,
    "lng": 139.774727,
    "lines": [
      "11302",
      "11332",
      "28001",
      "28003",
      "99301"
    ],
    "line_count": 5,
    "prefecture": "13",
    "ratings": null,
    "rent_avg": null,
    "transit_minutes": null
  },
  {
    "slug": "otemachi",
    "name_en": "Otemachi",
    "name_jp": "大手町",
    "lat": 35.686564,
    "lng": 139.7662,
    "lines": [
      "28002",
      "28004",
      "28005",
      "28008",
      "99303"
    ],
    "line_count": 5,
    "prefecture": "13",
    "ratings": null,
    "rent_avg": null,
    "transit_minutes": null
  },
  {
    "slug": "tachikawa",
    "name_en": "Tachikawa",
    "name_jp": "立川",
    "lat": 35.698202,
    "lng": 139.413704,
    "lines": [
      "11303",
      "11311",
      "11312",
      "11315",
      "11328"
    ],
    "line_count": 5,
    "prefecture": "13",
    "ratings": null,
    "rent_avg": null,
    "transit_minutes": null
  },
  {
    "slug": "totsuka",
    "name_en": "Totsuka",
    "name_jp": "戸塚",
    "lat": 35.400432,
    "lng": 139.534282,
    "lines": [
      "11301",
      "11308",
      "11328",
      "11333",
      "99316"
    ],
    "line_count": 5,
    "prefecture": "14",
    "ratings": null,
    "rent_avg": null,
    "transit_minutes": null
  },
  {
    "slug": "yotsuya",
    "name_en": "Yotsuya",
    "name_jp": "四ツ谷",
    "lat": 35.686041,
    "lng": 139.730644,
    "lines": [
      "11311",
      "11312",
      "11313",
      "28002",
      "28009"
    ],
    "line_count": 5,
    "prefecture": "13",
    "ratings": null,
    "rent_avg": null,
    "transit_minutes": null
  },
  {
    "slug": "ebisu",
    "name_en": "Ebisu",
    "name_jp": "恵比寿",
    "lat": 35.646685,
    "lng": 139.71007,
    "lines": [
      "11302",
      "11321",
      "11333",
      "28003"
    ],
    "line_count": 4,
    "prefecture": "13",
    "ratings": null,
    "rent_avg": null,
    "transit_minutes": null
  },
  {
    "slug": "funabashi",
    "name_en": "Funabashi",
    "name_jp": "船橋",
    "lat": 35.701865,
    "lng": 139.984707,
    "lines": [
      "11313",
      "11314",
      "21004",
      "23001"
    ],
    "line_count": 4,
    "prefecture": "12",
    "ratings": null,
    "rent_avg": null,
    "transit_minutes": null
  },
  {
    "slug": "haijima",
    "name_en": "Haijima",
    "name_jp": "拝島",
    "lat": 35.721278,
    "lng": 139.343468,
    "lines": [
      "11315",
      "11316",
      "11317",
      "22008"
    ],
    "line_count": 4,
    "prefecture": "13",
    "ratings": null,
    "rent_avg": null,
    "transit_minutes": null
  },
  {
    "slug": "ichigaya",
    "name_en": "Ichigaya",
    "name_jp": "市ケ谷",
    "lat": 35.691105,
    "lng": 139.735241,
    "lines": [
      "11313",
      "28006",
      "28009",
      "99304"
    ],
    "line_count": 4,
    "prefecture": "13",
    "ratings": null,
    "rent_avg": null,
    "transit_minutes": null
  },
  {
    "slug": "kanda",
    "name_en": "Kanda",
    "name_jp": "神田",
    "lat": 35.691173,
    "lng": 139.770641,
    "lines": [
      "11302",
      "11312",
      "11332",
      "28001"
    ],
    "line_count": 4,
    "prefecture": "13",
    "ratings": null,
    "rent_avg": null,
    "transit_minutes": null
  },
  {
    "slug": "kuko-daini-biru-daini-ryokyaku-taaminaru",
    "name_en": "Kuko-Daini-Biru-(-Daini-Ryokyaku-Taaminaru-)",
    "name_jp": "空港第２ビル（第２旅客ターミナル）",
    "lat": 35.773327,
    "lng": 140.387871,
    "lines": [
      "11327",
      "11328",
      "23001",
      "23006"
    ],
    "line_count": 4,
    "prefecture": "12",
    "ratings": null,
    "rent_avg": null,
    "transit_minutes": null
  },
  {
    "slug": "meguro",
    "name_en": "Meguro",
    "name_jp": "目黒",
    "lat": 35.633923,
    "lng": 139.715775,
    "lines": [
      "11302",
      "26002",
      "28009",
      "99303"
    ],
    "line_count": 4,
    "prefecture": "13",
    "ratings": null,
    "rent_avg": null,
    "transit_minutes": null
  },
  {
    "slug": "mitaka",
    "name_en": "Mitaka",
    "name_jp": "三鷹",
    "lat": 35.702683,
    "lng": 139.560325,
    "lines": [
      "11311",
      "11312",
      "11313",
      "11328"
    ],
    "line_count": 4,
    "prefecture": "13",
    "ratings": null,
    "rent_avg": null,
    "transit_minutes": null
  },
  {
    "slug": "naritakuko-daiichi-ryokyaku-taaminaru",
    "name_en": "Naritakuko-(-Daiichi-Ryokyaku-Taaminaru-)",
    "name_jp": "成田空港（第１旅客ターミナル）",
    "lat": 35.763983,
    "lng": 140.384644,
    "lines": [
      "11327",
      "11328",
      "23001",
      "23006"
    ],
    "line_count": 4,
    "prefecture": "12",
    "ratings": null,
    "rent_avg": null,
    "transit_minutes": null
  },
  {
    "slug": "nerima",
    "name_en": "Nerima",
    "name_jp": "練馬",
    "lat": 35.737893,
    "lng": 139.654368,
    "lines": [
      "22001",
      "22003",
      "22004",
      "99301"
    ],
    "line_count": 4,
    "prefecture": "13",
    "ratings": null,
    "rent_avg": null,
    "transit_minutes": null
  },
  {
    "slug": "nishi-nippori",
    "name_en": "Nishi-Nippori",
    "name_jp": "西日暮里",
    "lat": 35.731954,
    "lng": 139.766857,
    "lines": [
      "11302",
      "11332",
      "28005",
      "99342"
    ],
    "line_count": 4,
    "prefecture": "13",
    "ratings": null,
    "rent_avg": null,
    "transit_minutes": null
  },
  {
    "slug": "ochanomizu",
    "name_en": "Ochanomizu",
    "name_jp": "御茶ノ水",
    "lat": 35.699605,
    "lng": 139.764955,
    "lines": [
      "11312",
      "11313",
      "28002",
      "28005"
    ],
    "line_count": 4,
    "prefecture": "13",
    "ratings": null,
    "rent_avg": null,
    "transit_minutes": null
  },
  {
    "slug": "odawara",
    "name_en": "Odawara",
    "name_jp": "小田原",
    "lat": 35.256225,
    "lng": 139.155772,
    "lines": [
      "11301",
      "25001",
      "99314",
      "99339"
    ],
    "line_count": 4,
    "prefecture": "14",
    "ratings": null,
    "rent_avg": null,
    "transit_minutes": null
  },
  {
    "slug": "osaki",
    "name_en": "Osaki",
    "name_jp": "大崎",
    "lat": 35.619772,
    "lng": 139.728439,
    "lines": [
      "11302",
      "11321",
      "11333",
      "99337"
    ],
    "line_count": 4,
    "prefecture": "13",
    "ratings": null,
    "rent_avg": null,
    "transit_minutes": null
  },
  {
    "slug": "oshiage-sukaitsurii-mae",
    "name_en": "Oshiage-<-Sukaitsurii-Mae->",
    "name_jp": "押上〈スカイツリー前〉",
    "lat": 35.710702,
    "lng": 139.812935,
    "lines": [
      "21002",
      "23002",
      "28008",
      "99302"
    ],
    "line_count": 4,
    "prefecture": "13",
    "ratings": null,
    "rent_avg": null,
    "transit_minutes": null
  },
  {
    "slug": "shin-kamagaya",
    "name_en": "Shin-Kamagaya",
    "name_jp": "新鎌ヶ谷",
    "lat": 35.780221,
    "lng": 139.999455,
    "lines": [
      "21004",
      "23006",
      "99329",
      "99340"
    ],
    "line_count": 4,
    "prefecture": "12",
    "ratings": null,
    "rent_avg": null,
    "transit_minutes": null
  },
  {
    "slug": "takao",
    "name_en": "Takao",
    "name_jp": "高尾",
    "lat": 35.642026,
    "lng": 139.282288,
    "lines": [
      "11311",
      "11312",
      "11328",
      "24003"
    ],
    "line_count": 4,
    "prefecture": "13",
    "ratings": null,
    "rent_avg": null,
    "transit_minutes": null
  },
  {
    "slug": "urawa",
    "name_en": "Urawa",
    "name_jp": "浦和",
    "lat": 35.858496,
    "lng": 139.657109,
    "lines": [
      "11319",
      "11323",
      "11332",
      "11333"
    ],
    "line_count": 4,
    "prefecture": "11",
    "ratings": null,
    "rent_avg": null,
    "transit_minutes": null
  },
  {
    "slug": "abiko",
    "name_en": "Abiko",
    "name_jp": "我孫子",
    "lat": 35.87279,
    "lng": 140.010466,
    "lines": [
      "11320",
      "11320",
      "11327"
    ],
    "line_count": 3,
    "prefecture": "12",
    "ratings": null,
    "rent_avg": null,
    "transit_minutes": null
  },
  {
    "slug": "aoto",
    "name_en": "Aoto",
    "name_jp": "青砥",
    "lat": 35.745883,
    "lng": 139.856292,
    "lines": [
      "23001",
      "23002",
      "23006"
    ],
    "line_count": 3,
    "prefecture": "13",
    "ratings": null,
    "rent_avg": null,
    "transit_minutes": null
  },
  {
    "slug": "aoyama-itchome",
    "name_en": "Aoyama-Itchome",
    "name_jp": "青山一丁目",
    "lat": 35.672765,
    "lng": 139.724159,
    "lines": [
      "28001",
      "28008",
      "99301"
    ],
    "line_count": 3,
    "prefecture": "13",
    "ratings": null,
    "rent_avg": null,
    "transit_minutes": null
  },
  {
    "slug": "asakusa",
    "name_en": "Asakusa",
    "name_jp": "浅草",
    "lat": 35.711883,
    "lng": 139.798214,
    "lines": [
      "21002",
      "28001",
      "99302"
    ],
    "line_count": 3,
    "prefecture": "13",
    "ratings": null,
    "rent_avg": null,
    "transit_minutes": null
  },
  {
    "slug": "bakurocho",
    "name_en": "Bakurocho",
    "name_jp": "馬喰町",
    "lat": 35.693365,
    "lng": 139.78238,
    "lines": [
      "11314",
      "99302",
      "99304"
    ],
    "line_count": 3,
    "prefecture": "13",
    "ratings": null,
    "rent_avg": null,
    "transit_minutes": null
  },
  {
    "slug": "chikatetsu-akatsuka",
    "name_en": "Chikatetsu-Akatsuka",
    "name_jp": "地下鉄赤塚",
    "lat": 35.770558,
    "lng": 139.644482,
    "lines": [
      "21001",
      "28006",
      "28010"
    ],
    "line_count": 3,
    "prefecture": "13",
    "ratings": null,
    "rent_avg": null,
    "transit_minutes": null
  },
  {
    "slug": "chikatetsu-narimasu",
    "name_en": "Chikatetsu-Narimasu",
    "name_jp": "地下鉄成増",
    "lat": 35.777723,
    "lng": 139.632708,
    "lines": [
      "21001",
      "28006",
      "28010"
    ],
    "line_count": 3,
    "prefecture": "13",
    "ratings": null,
    "rent_avg": null,
    "transit_minutes": null
  },
  {
    "slug": "choshi",
    "name_en": "Choshi",
    "name_jp": "銚子",
    "lat": 35.729449,
    "lng": 140.827557,
    "lines": [
      "11314",
      "11327",
      "99335"
    ],
    "line_count": 3,
    "prefecture": "12",
    "ratings": null,
    "rent_avg": null,
    "transit_minutes": null
  },
  {
    "slug": "ebina",
    "name_en": "Ebina",
    "name_jp": "海老名",
    "lat": 35.454282,
    "lng": 139.389328,
    "lines": [
      "11309",
      "25001",
      "29001"
    ],
    "line_count": 3,
    "prefecture": "14",
    "ratings": null,
    "rent_avg": null,
    "transit_minutes": null
  },
  {
    "slug": "fujisawa",
    "name_en": "Fujisawa",
    "name_jp": "藤沢",
    "lat": 35.338882,
    "lng": 139.487293,
    "lines": [
      "11301",
      "25002",
      "99320"
    ],
    "line_count": 3,
    "prefecture": "14",
    "ratings": null,
    "rent_avg": null,
    "transit_minutes": null
  },
  {
    "slug": "ginza",
    "name_en": "Ginza",
    "name_jp": "銀座",
    "lat": 35.671989,
    "lng": 139.763965,
    "lines": [
      "28001",
      "28002",
      "28003"
    ],
    "line_count": 3,
    "prefecture": "13",
    "ratings": null,
    "rent_avg": null,
    "transit_minutes": null
  },
  {
    "slug": "gotanda",
    "name_en": "Gotanda",
    "name_jp": "五反田",
    "lat": 35.625974,
    "lng": 139.723822,
    "lines": [
      "11302",
      "26005",
      "99302"
    ],
    "line_count": 3,
    "prefecture": "13",
    "ratings": null,
    "rent_avg": null,
    "transit_minutes": null
  },
  {
    "slug": "hamamatsucho",
    "name_en": "Hamamatsucho",
    "name_jp": "浜松町",
    "lat": 35.655391,
    "lng": 139.757135,
    "lines": [
      "11302",
      "11332",
      "99336"
    ],
    "line_count": 3,
    "prefecture": "13",
    "ratings": null,
    "rent_avg": null,
    "transit_minutes": null
  },
  {
    "slug": "hanedakuko-kokunaisen-taaminaru",
    "name_en": "Hanedakuko-Kokunaisen-Taaminaru",
    "name_jp": "羽田空港国内線ターミナル",
    "lat": 35.549809,
    "lng": 139.785962,
    "lines": [
      "27002",
      "99336",
      "99336"
    ],
    "line_count": 3,
    "prefecture": "13",
    "ratings": null,
    "rent_avg": null,
    "transit_minutes": null
  },
  {
    "slug": "harajuku",
    "name_en": "Harajuku",
    "name_jp": "明治神宮前〈原宿〉",
    "lat": 35.670646,
    "lng": 139.702592,
    "lines": [
      "11302",
      "28005",
      "28010"
    ],
    "line_count": 3,
    "prefecture": "13",
    "ratings": null,
    "rent_avg": null,
    "transit_minutes": null
  },
  {
    "slug": "hashimoto",
    "name_en": "Hashimoto",
    "name_jp": "橋本",
    "lat": 35.594975,
    "lng": 139.344586,
    "lines": [
      "11306",
      "11309",
      "24002"
    ],
    "line_count": 3,
    "prefecture": "14",
    "ratings": null,
    "rent_avg": null,
    "transit_minutes": null
  },
  {
    "slug": "hibiya",
    "name_en": "Hibiya",
    "name_jp": "日比谷",
    "lat": 35.67459,
    "lng": 139.76017,
    "lines": [
      "28003",
      "28005",
      "99303"
    ],
    "line_count": 3,
    "prefecture": "13",
    "ratings": null,
    "rent_avg": null,
    "transit_minutes": null
  },
  {
    "slug": "higashi-kanagawa",
    "name_en": "Higashi-Kanagawa",
    "name_jp": "東神奈川",
    "lat": 35.47804,
    "lng": 139.633466,
    "lines": [
      "11306",
      "11332",
      "27001"
    ],
    "line_count": 3,
    "prefecture": "14",
    "ratings": null,
    "rent_avg": null,
    "transit_minutes": null
  },
  {
    "slug": "higashi-matsudo",
    "name_en": "Higashi-Matsudo",
    "name_jp": "東松戸",
    "lat": 35.770611,
    "lng": 139.943848,
    "lines": [
      "11305",
      "23006",
      "99340"
    ],
    "line_count": 3,
    "prefecture": "12",
    "ratings": null,
    "rent_avg": null,
    "transit_minutes": null
  },
  {
    "slug": "higashi-murayama",
    "name_en": "Higashi-Murayama",
    "name_jp": "東村山",
    "lat": 35.76006,
    "lng": 139.465839,
    "lines": [
      "22007",
      "22009",
      "22010"
    ],
    "line_count": 3,
    "prefecture": "13",
    "ratings": null,
    "rent_avg": null,
    "transit_minutes": null
  },
  {
    "slug": "higashihanno",
    "name_en": "Higashihanno",
    "name_jp": "東飯能",
    "lat": 35.852928,
    "lng": 139.325965,
    "lines": [
      "11317",
      "22001",
      "22002"
    ],
    "line_count": 3,
    "prefecture": "11",
    "ratings": null,
    "rent_avg": null,
    "transit_minutes": null
  },
  {
    "slug": "hikifune",
    "name_en": "Hikifune",
    "name_jp": "曳舟",
    "lat": 35.718418,
    "lng": 139.816634,
    "lines": [
      "21002",
      "21002",
      "21005"
    ],
    "line_count": 3,
    "prefecture": "13",
    "ratings": null,
    "rent_avg": null,
    "transit_minutes": null
  },
  {
    "slug": "hiyoshi",
    "name_en": "Hiyoshi",
    "name_jp": "日吉",
    "lat": 35.5539,
    "lng": 139.646944,
    "lines": [
      "26001",
      "26002",
      "99343"
    ],
    "line_count": 3,
    "prefecture": "14",
    "ratings": null,
    "rent_avg": null,
    "transit_minutes": null
  },
  {
    "slug": "jimbocho",
    "name_en": "Jimbocho",
    "name_jp": "神保町",
    "lat": 35.695966,
    "lng": 139.757606,
    "lines": [
      "28008",
      "99303",
      "99304"
    ],
    "line_count": 3,
    "prefecture": "13",
    "ratings": null,
    "rent_avg": null,
    "transit_minutes": null
  },
  {
    "slug": "kamata",
    "name_en": "Kamata",
    "name_jp": "蒲田",
    "lat": 35.562517,
    "lng": 139.716032,
    "lines": [
      "11332",
      "26005",
      "26006"
    ],
    "line_count": 3,
    "prefecture": "13",
    "ratings": null,
    "rent_avg": null,
    "transit_minutes": null
  },
  {
    "slug": "kanazawa-hakkei",
    "name_en": "Kanazawa-Hakkei",
    "name_jp": "金沢八景",
    "lat": 35.331223,
    "lng": 139.62018,
    "lines": [
      "27001",
      "27004",
      "99317"
    ],
    "line_count": 3,
    "prefecture": "14",
    "ratings": null,
    "rent_avg": null,
    "transit_minutes": null
  },
  {
    "slug": "kashiwa",
    "name_en": "Kashiwa",
    "name_jp": "柏",
    "lat": 35.862316,
    "lng": 139.971148,
    "lines": [
      "11320",
      "11320",
      "21004"
    ],
    "line_count": 3,
    "prefecture": "12",
    "ratings": null,
    "rent_avg": null,
    "transit_minutes": null
  },
  {
    "slug": "kawagoe",
    "name_en": "Kawagoe",
    "name_jp": "川越",
    "lat": 35.906742,
    "lng": 139.483078,
    "lines": [
      "11322",
      "11322",
      "21001"
    ],
    "line_count": 3,
    "prefecture": "11",
    "ratings": null,
    "rent_avg": null,
    "transit_minutes": null
  },
  {
    "slug": "kawasaki",
    "name_en": "Kawasaki",
    "name_jp": "川崎",
    "lat": 35.531311,
    "lng": 139.697485,
    "lines": [
      "11301",
      "11303",
      "11332"
    ],
    "line_count": 3,
    "prefecture": "14",
    "ratings": null,
    "rent_avg": null,
    "transit_minutes": null
  },
  {
    "slug": "keiotama-sentaa",
    "name_en": "Keiotama-Sentaa",
    "name_jp": "京王多摩センター",
    "lat": 35.62518,
    "lng": 139.42402,
    "lines": [
      "24002",
      "25003",
      "99334"
    ],
    "line_count": 3,
    "prefecture": "13",
    "ratings": null,
    "rent_avg": null,
    "transit_minutes": null
  },
  {
    "slug": "keisei-tsudanuma",
    "name_en": "Keisei-Tsudanuma",
    "name_jp": "京成津田沼",
    "lat": 35.68364,
    "lng": 140.024823,
    "lines": [
      "23001",
      "23004",
      "99329"
    ],
    "line_count": 3,
    "prefecture": "12",
    "ratings": null,
    "rent_avg": null,
    "transit_minutes": null
  },
  {
    "slug": "kinshicho",
    "name_en": "Kinshicho",
    "name_jp": "錦糸町",
    "lat": 35.696802,
    "lng": 139.814136,
    "lines": [
      "11313",
      "11314",
      "28008"
    ],
    "line_count": 3,
    "prefecture": "13",
    "ratings": null,
    "rent_avg": null,
    "transit_minutes": null
  },
  {
    "slug": "komagawa",
    "name_en": "Komagawa",
    "name_jp": "高麗川",
    "lat": 35.896328,
    "lng": 139.33809,
    "lines": [
      "11317",
      "11318",
      "11322"
    ],
    "line_count": 3,
    "prefecture": "11",
    "ratings": null,
    "rent_avg": null,
    "transit_minutes": null
  },
  {
    "slug": "kotake-mukaihara",
    "name_en": "Kotake-Mukaihara",
    "name_jp": "小竹向原",
    "lat": 35.743803,
    "lng": 139.678572,
    "lines": [
      "22003",
      "28006",
      "28010"
    ],
    "line_count": 3,
    "prefecture": "13",
    "ratings": null,
    "rent_avg": null,
    "transit_minutes": null
  },
  {
    "slug": "kudanshita",
    "name_en": "Kudanshita",
    "name_jp": "九段下",
    "lat": 35.695589,
    "lng": 139.751948,
    "lines": [
      "28004",
      "28008",
      "99304"
    ],
    "line_count": 3,
    "prefecture": "13",
    "ratings": null,
    "rent_avg": null,
    "transit_minutes": null
  },
  {
    "slug": "machiya",
    "name_en": "Machiya",
    "name_jp": "町屋",
    "lat": 35.742354,
    "lng": 139.781499,
    "lines": [
      "23001",
      "28005",
      "99305"
    ],
    "line_count": 3,
    "prefecture": "13",
    "ratings": null,
    "rent_avg": null,
    "transit_minutes": null
  },
  {
    "slug": "matsudo",
    "name_en": "Matsudo",
    "name_jp": "松戸",
    "lat": 35.784472,
    "lng": 139.900779,
    "lines": [
      "11320",
      "11320",
      "99329"
    ],
    "line_count": 3,
    "prefecture": "12",
    "ratings": null,
    "rent_avg": null,
    "transit_minutes": null
  },
  {
    "slug": "minamisenju",
    "name_en": "Minamisenju",
    "name_jp": "南千住",
    "lat": 35.734033,
    "lng": 139.7994,
    "lines": [
      "11320",
      "28003",
      "99309"
    ],
    "line_count": 3,
    "prefecture": "13",
    "ratings": null,
    "rent_avg": null,
    "transit_minutes": null
  },
  {
    "slug": "mitsukoshimae",
    "name_en": "Mitsukoshimae",
    "name_jp": "三越前",
    "lat": 35.688687,
    "lng": 139.77323,
    "lines": [
      "11314",
      "28001",
      "28008"
    ],
    "line_count": 3,
    "prefecture": "13",
    "ratings": null,
    "rent_avg": null,
    "transit_minutes": null
  },
  {
    "slug": "mizonokuchi",
    "name_en": "Mizonokuchi",
    "name_jp": "溝の口",
    "lat": 35.598923,
    "lng": 139.61139,
    "lines": [
      "11303",
      "26003",
      "26004"
    ],
    "line_count": 3,
    "prefecture": "14",
    "ratings": null,
    "rent_avg": null,
    "transit_minutes": null
  },
  {
    "slug": "motoyawata",
    "name_en": "Motoyawata",
    "name_jp": "本八幡",
    "lat": 35.720898,
    "lng": 139.92741,
    "lines": [
      "11313",
      "23001",
      "99304"
    ],
    "line_count": 3,
    "prefecture": "12",
    "ratings": null,
    "rent_avg": null,
    "transit_minutes": null
  },
  {
    "slug": "nagatsuda",
    "name_en": "Nagatsuda",
    "name_jp": "長津田",
    "lat": 35.531698,
    "lng": 139.49468,
    "lines": [
      "11306",
      "26003",
      "26008"
    ],
    "line_count": 3,
    "prefecture": "14",
    "ratings": null,
    "rent_avg": null,
    "transit_minutes": null
  },
  {
    "slug": "nakano",
    "name_en": "Nakano",
    "name_jp": "中野",
    "lat": 35.705765,
    "lng": 139.665835,
    "lines": [
      "11312",
      "11313",
      "28004"
    ],
    "line_count": 3,
    "prefecture": "13",
    "ratings": null,
    "rent_avg": null,
    "transit_minutes": null
  },
  {
    "slug": "nakano-sakaue",
    "name_en": "Nakano-Sakaue",
    "name_jp": "中野坂上",
    "lat": 35.69792,
    "lng": 139.68291,
    "lines": [
      "28002",
      "28002",
      "99301"
    ],
    "line_count": 3,
    "prefecture": "13",
    "ratings": null,
    "rent_avg": null,
    "transit_minutes": null
  },
  {
    "slug": "nihonbashi",
    "name_en": "Nihonbashi",
    "name_jp": "日本橋",
    "lat": 35.682078,
    "lng": 139.773516,
    "lines": [
      "28001",
      "28004",
      "99302"
    ],
    "line_count": 3,
    "prefecture": "13",
    "ratings": null,
    "rent_avg": null,
    "transit_minutes": null
  },
  {
    "slug": "ogikubo",
    "name_en": "Ogikubo",
    "name_jp": "荻窪",
    "lat": 35.704523,
    "lng": 139.620109,
    "lines": [
      "11312",
      "11313",
      "28002"
    ],
    "line_count": 3,
    "prefecture": "13",
    "ratings": null,
    "rent_avg": null,
    "transit_minutes": null
  },
  {
    "slug": "oimachi",
    "name_en": "Oimachi",
    "name_jp": "大井町",
    "lat": 35.606257,
    "lng": 139.73485,
    "lines": [
      "11332",
      "26004",
      "99337"
    ],
    "line_count": 3,
    "prefecture": "13",
    "ratings": null,
    "rent_avg": null,
    "transit_minutes": null
  },
  {
    "slug": "oji",
    "name_en": "Oji",
    "name_jp": "王子",
    "lat": 35.752538,
    "lng": 139.73809,
    "lines": [
      "11332",
      "28009",
      "99305"
    ],
    "line_count": 3,
    "prefecture": "13",
    "ratings": null,
    "rent_avg": null,
    "transit_minutes": null
  },
  {
    "slug": "omotesando",
    "name_en": "Omotesando",
    "name_jp": "表参道",
    "lat": 35.665247,
    "lng": 139.712314,
    "lines": [
      "28001",
      "28005",
      "28008"
    ],
    "line_count": 3,
    "prefecture": "13",
    "ratings": null,
    "rent_avg": null,
    "transit_minutes": null
  },
  {
    "slug": "saitama-shintoshin",
    "name_en": "Saitama-Shintoshin",
    "name_jp": "さいたま新都心",
    "lat": 35.893867,
    "lng": 139.633587,
    "lines": [
      "11319",
      "11323",
      "11332"
    ],
    "line_count": 3,
    "prefecture": "11",
    "ratings": null,
    "rent_avg": null,
    "transit_minutes": null
  },
  {
    "slug": "shin-matsudo",
    "name_en": "Shin-Matsudo",
    "name_jp": "新松戸",
    "lat": 35.825467,
    "lng": 139.921076,
    "lines": [
      "11305",
      "11320",
      "99333"
    ],
    "line_count": 3,
    "prefecture": "12",
    "ratings": null,
    "rent_avg": null,
    "transit_minutes": null
  },
  {
    "slug": "shinjuku-sanchome",
    "name_en": "Shinjuku-Sanchome",
    "name_jp": "新宿三丁目",
    "lat": 35.690847,
    "lng": 139.704895,
    "lines": [
      "28002",
      "28010",
      "99304"
    ],
    "line_count": 3,
    "prefecture": "13",
    "ratings": null,
    "rent_avg": null,
    "transit_minutes": null
  },
  {
    "slug": "shinkiba",
    "name_en": "Shinkiba",
    "name_jp": "新木場",
    "lat": 35.646172,
    "lng": 139.827402,
    "lines": [
      "11326",
      "28006",
      "99337"
    ],
    "line_count": 3,
    "prefecture": "13",
    "ratings": null,
    "rent_avg": null,
    "transit_minutes": null
  },
  {
    "slug": "shonandai",
    "name_en": "Shonandai",
    "name_jp": "湘南台",
    "lat": 35.396488,
    "lng": 139.466451,
    "lines": [
      "25002",
      "29002",
      "99316"
    ],
    "line_count": 3,
    "prefecture": "14",
    "ratings": null,
    "rent_avg": null,
    "transit_minutes": null
  },
  {
    "slug": "soga",
    "name_en": "Soga",
    "name_jp": "蘇我",
    "lat": 35.582065,
    "lng": 140.130767,
    "lines": [
      "11324",
      "11325",
      "11326"
    ],
    "line_count": 3,
    "prefecture": "12",
    "ratings": null,
    "rent_avg": null,
    "transit_minutes": null
  },
  {
    "slug": "takadanobaba",
    "name_en": "Takadanobaba",
    "name_jp": "高田馬場",
    "lat": 35.712677,
    "lng": 139.703715,
    "lines": [
      "11302",
      "22007",
      "28004"
    ],
    "line_count": 3,
    "prefecture": "13",
    "ratings": null,
    "rent_avg": null,
    "transit_minutes": null
  },
  {
    "slug": "takahata-fudo",
    "name_en": "Takahata-Fudo",
    "name_jp": "高幡不動",
    "lat": 35.662361,
    "lng": 139.412953,
    "lines": [
      "24001",
      "24005",
      "99334"
    ],
    "line_count": 3,
    "prefecture": "13",
    "ratings": null,
    "rent_avg": null,
    "transit_minutes": null
  },
  {
    "slug": "tamagawa",
    "name_en": "Tamagawa",
    "name_jp": "多摩川",
    "lat": 35.589591,
    "lng": 139.668723,
    "lines": [
      "26001",
      "26002",
      "26006"
    ],
    "line_count": 3,
    "prefecture": "13",
    "ratings": null,
    "rent_avg": null,
    "transit_minutes": null
  },
  {
    "slug": "tobudobutsukoen",
    "name_en": "Tobudobutsukoen",
    "name_jp": "東武動物公園",
    "lat": 36.024604,
    "lng": 139.726901,
    "lines": [
      "21002",
      "21002",
      "21003"
    ],
    "line_count": 3,
    "prefecture": "11",
    "ratings": null,
    "rent_avg": null,
    "transit_minutes": null
  },
  {
    "slug": "tsurumi",
    "name_en": "Tsurumi",
    "name_jp": "鶴見",
    "lat": 35.508387,
    "lng": 139.67614,
    "lines": [
      "11304",
      "11332",
      "27001"
    ],
    "line_count": 3,
    "prefecture": "14",
    "ratings": null,
    "rent_avg": null,
    "transit_minutes": null
  },
  {
    "slug": "wakoshi",
    "name_en": "Wakoshi",
    "name_jp": "和光市",
    "lat": 35.788507,
    "lng": 139.612434,
    "lines": [
      "21001",
      "28006",
      "28010"
    ],
    "line_count": 3,
    "prefecture": "11",
    "ratings": null,
    "rent_avg": null,
    "transit_minutes": null
  },
  {
    "slug": "yorii",
    "name_en": "Yorii",
    "name_jp": "寄居",
    "lat": 36.118013,
    "lng": 139.194224,
    "lines": [
      "11318",
      "21001",
      "99306"
    ],
    "line_count": 3,
    "prefecture": "11",
    "ratings": null,
    "rent_avg": null,
    "transit_minutes": null
  },
  {
    "slug": "yoyogi",
    "name_en": "Yoyogi",
    "name_jp": "代々木",
    "lat": 35.683061,
    "lng": 139.702042,
    "lines": [
      "11302",
      "11313",
      "99301"
    ],
    "line_count": 3,
    "prefecture": "13",
    "ratings": null,
    "rent_avg": null,
    "transit_minutes": null
  },
  {
    "slug": "yurakucho",
    "name_en": "Yurakucho",
    "name_jp": "有楽町",
    "lat": 35.675441,
    "lng": 139.763806,
    "lines": [
      "11302",
      "11332",
      "28006"
    ],
    "line_count": 3,
    "prefecture": "13",
    "ratings": null,
    "rent_avg": null,
    "transit_minutes": null
  },
  {
    "slug": "akabane-iwabuchi",
    "name_en": "Akabane-Iwabuchi",
    "name_jp": "赤羽岩淵",
    "lat": 35.783417,
    "lng": 139.722103,
    "lines": [
      "28009",
      "99307"
    ],
    "line_count": 2,
    "prefecture": "13",
    "ratings": null,
    "rent_avg": null,
    "transit_minutes": null
  },
  {
    "slug": "asagaya",
    "name_en": "Asagaya",
    "name_jp": "阿佐ケ谷",
    "lat": 35.704818,
    "lng": 139.635868,
    "lines": [
      "11312",
      "11313"
    ],
    "line_count": 2,
    "prefecture": "13",
    "ratings": null,
    "rent_avg": null,
    "transit_minutes": null
  },
  {
    "slug": "asakusabashi",
    "name_en": "Asakusabashi",
    "name_jp": "浅草橋",
    "lat": 35.697403,
    "lng": 139.784427,
    "lines": [
      "11313",
      "99302"
    ],
    "line_count": 2,
    "prefecture": "13",
    "ratings": null,
    "rent_avg": null,
    "transit_minutes": null
  },
  {
    "slug": "atsugi",
    "name_en": "Atsugi",
    "name_jp": "厚木",
    "lat": 35.44375,
    "lng": 139.378631,
    "lines": [
      "11309",
      "25001"
    ],
    "line_count": 2,
    "prefecture": "14",
    "ratings": null,
    "rent_avg": null,
    "transit_minutes": null
  },
  {
    "slug": "awa-kamogawa",
    "name_en": "Awa-Kamogawa",
    "name_jp": "安房鴨川",
    "lat": 35.107465,
    "lng": 140.103566,
    "lines": [
      "11324",
      "11325"
    ],
    "line_count": 2,
    "prefecture": "12",
    "ratings": null,
    "rent_avg": null,
    "transit_minutes": null
  },
  {
    "slug": "awajicho",
    "name_en": "Awajicho",
    "name_jp": "淡路町",
    "lat": 35.695434,
    "lng": 139.767575,
    "lines": [
      "28002",
      "99304"
    ],
    "line_count": 2,
    "prefecture": "13",
    "ratings": null,
    "rent_avg": null,
    "transit_minutes": null
  },
  {
    "slug": "ayase",
    "name_en": "Ayase",
    "name_jp": "綾瀬",
    "lat": 35.762222,
    "lng": 139.825019,
    "lines": [
      "11320",
      "28005"
    ],
    "line_count": 2,
    "prefecture": "13",
    "ratings": null,
    "rent_avg": null,
    "transit_minutes": null
  },
  {
    "slug": "azabu-juban",
    "name_en": "Azabu-Juban",
    "name_jp": "麻布十番",
    "lat": 35.654682,
    "lng": 139.737051,
    "lines": [
      "28009",
      "99301"
    ],
    "line_count": 2,
    "prefecture": "13",
    "ratings": null,
    "rent_avg": null,
    "transit_minutes": null
  },
  {
    "slug": "azami-no",
    "name_en": "Azami-No",
    "name_jp": "あざみ野",
    "lat": 35.568645,
    "lng": 139.553462,
    "lines": [
      "26003",
      "99316"
    ],
    "line_count": 2,
    "prefecture": "14",
    "ratings": null,
    "rent_avg": null,
    "transit_minutes": null
  },
  {
    "slug": "bubaigawara",
    "name_en": "Bubaigawara",
    "name_jp": "分倍河原",
    "lat": 35.668493,
    "lng": 139.468798,
    "lines": [
      "11303",
      "24001"
    ],
    "line_count": 2,
    "prefecture": "13",
    "ratings": null,
    "rent_avg": null,
    "transit_minutes": null
  },
  {
    "slug": "chiba-minato",
    "name_en": "Chiba-Minato",
    "name_jp": "千葉みなと",
    "lat": 35.606172,
    "lng": 140.10341,
    "lines": [
      "11326",
      "99331"
    ],
    "line_count": 2,
    "prefecture": "12",
    "ratings": null,
    "rent_avg": null,
    "transit_minutes": null
  },
  {
    "slug": "chiba-nyutaun-chuo",
    "name_en": "Chiba-Nyutaun-Chuo",
    "name_jp": "千葉ニュータウン中央",
    "lat": 35.800175,
    "lng": 140.116159,
    "lines": [
      "23006",
      "99340"
    ],
    "line_count": 2,
    "prefecture": "12",
    "ratings": null,
    "rent_avg": null,
    "transit_minutes": null
  },
  {
    "slug": "chibachuo",
    "name_en": "Chibachuo",
    "name_jp": "千葉中央",
    "lat": 35.607354,
    "lng": 140.117809,
    "lines": [
      "23004",
      "23005"
    ],
    "line_count": 2,
    "prefecture": "12",
    "ratings": null,
    "rent_avg": null,
    "transit_minutes": null
  },
  {
    "slug": "chofu",
    "name_en": "Chofu",
    "name_jp": "調布",
    "lat": 35.652181,
    "lng": 139.543988,
    "lines": [
      "24001",
      "24002"
    ],
    "line_count": 2,
    "prefecture": "13",
    "ratings": null,
    "rent_avg": null,
    "transit_minutes": null
  },
  {
    "slug": "chuorinkan",
    "name_en": "Chuorinkan",
    "name_jp": "中央林間",
    "lat": 35.508066,
    "lng": 139.444105,
    "lines": [
      "25002",
      "26003"
    ],
    "line_count": 2,
    "prefecture": "14",
    "ratings": null,
    "rent_avg": null,
    "transit_minutes": null
  },
  {
    "slug": "daimon",
    "name_en": "Daimon",
    "name_jp": "大門",
    "lat": 35.656785,
    "lng": 139.75466,
    "lines": [
      "99301",
      "99302"
    ],
    "line_count": 2,
    "prefecture": "13",
    "ratings": null,
    "rent_avg": null,
    "transit_minutes": null
  },
  {
    "slug": "denenchofu",
    "name_en": "Denenchofu",
    "name_jp": "田園調布",
    "lat": 35.596815,
    "lng": 139.667356,
    "lines": [
      "26001",
      "26002"
    ],
    "line_count": 2,
    "prefecture": "13",
    "ratings": null,
    "rent_avg": null,
    "transit_minutes": null
  },
  {
    "slug": "fuchuhonmachi",
    "name_en": "Fuchuhonmachi",
    "name_jp": "府中本町",
    "lat": 35.665766,
    "lng": 139.477142,
    "lines": [
      "11303",
      "11305"
    ],
    "line_count": 2,
    "prefecture": "13",
    "ratings": null,
    "rent_avg": null,
    "transit_minutes": null
  },
  {
    "slug": "futako-tamagawa",
    "name_en": "Futako-Tamagawa",
    "name_jp": "二子玉川",
    "lat": 35.611788,
    "lng": 139.626685,
    "lines": [
      "26003",
      "26004"
    ],
    "line_count": 2,
    "prefecture": "13",
    "ratings": null,
    "rent_avg": null,
    "transit_minutes": null
  },
  {
    "slug": "futakoshinchi",
    "name_en": "Futakoshinchi",
    "name_jp": "二子新地",
    "lat": 35.606994,
    "lng": 139.622338,
    "lines": [
      "26003",
      "26004"
    ],
    "line_count": 2,
    "prefecture": "14",
    "ratings": null,
    "rent_avg": null,
    "transit_minutes": null
  },
  {
    "slug": "futamatagawa",
    "name_en": "Futamatagawa",
    "name_jp": "二俣川",
    "lat": 35.463335,
    "lng": 139.532207,
    "lines": [
      "29001",
      "29002"
    ],
    "line_count": 2,
    "prefecture": "14",
    "ratings": null,
    "rent_avg": null,
    "transit_minutes": null
  },
  {
    "slug": "goi",
    "name_en": "Goi",
    "name_jp": "五井",
    "lat": 35.512985,
    "lng": 140.089522,
    "lines": [
      "11325",
      "99325"
    ],
    "line_count": 2,
    "prefecture": "12",
    "ratings": null,
    "rent_avg": null,
    "transit_minutes": null
  },
  {
    "slug": "gotokuji",
    "name_en": "Gotokuji",
    "name_jp": "豪徳寺",
    "lat": 35.653807,
    "lng": 139.647381,
    "lines": [
      "25001",
      "26007"
    ],
    "line_count": 2,
    "prefecture": "13",
    "ratings": null,
    "rent_avg": null,
    "transit_minutes": null
  },
  {
    "slug": "gora",
    "name_en": "Gora",
    "name_jp": "強羅",
    "lat": 35.25085,
    "lng": 139.048162,
    "lines": [
      "99339",
      "99344"
    ],
    "line_count": 2,
    "prefecture": "14",
    "ratings": null,
    "rent_avg": null,
    "transit_minutes": null
  },
  {
    "slug": "hagiyama",
    "name_en": "Hagiyama",
    "name_jp": "萩山",
    "lat": 35.740759,
    "lng": 139.476903,
    "lines": [
      "22008",
      "22011"
    ],
    "line_count": 2,
    "prefecture": "13",
    "ratings": null,
    "rent_avg": null,
    "transit_minutes": null
  },
  {
    "slug": "hamakawasaki",
    "name_en": "Hamakawasaki",
    "name_jp": "浜川崎",
    "lat": 35.510428,
    "lng": 139.713483,
    "lines": [
      "11303",
      "11304"
    ],
    "line_count": 2,
    "prefecture": "14",
    "ratings": null,
    "rent_avg": null,
    "transit_minutes": null
  },
  {
    "slug": "hanedakuko-kokusaisen-taaminaru",
    "name_en": "Hanedakuko-Kokusaisen-Taaminaru",
    "name_jp": "羽田空港国際線ターミナル",
    "lat": 35.544676,
    "lng": 139.768968,
    "lines": [
      "27002",
      "99336"
    ],
    "line_count": 2,
    "prefecture": "13",
    "ratings": null,
    "rent_avg": null,
    "transit_minutes": null
  },
  {
    "slug": "hanno",
    "name_en": "Hanno",
    "name_jp": "飯能",
    "lat": 35.851189,
    "lng": 139.318824,
    "lines": [
      "22001",
      "22002"
    ],
    "line_count": 2,
    "prefecture": "11",
    "ratings": null,
    "rent_avg": null,
    "transit_minutes": null
  },
  {
    "slug": "hanyu",
    "name_en": "Hanyu",
    "name_jp": "羽生",
    "lat": 36.170345,
    "lng": 139.533949,
    "lines": [
      "21002",
      "99306"
    ],
    "line_count": 2,
    "prefecture": "11",
    "ratings": null,
    "rent_avg": null,
    "transit_minutes": null
  },
  {
    "slug": "hatagaya",
    "name_en": "Hatagaya",
    "name_jp": "幡ヶ谷",
    "lat": 35.677061,
    "lng": 139.676183,
    "lines": [
      "24001",
      "24007"
    ],
    "line_count": 2,
    "prefecture": "13",
    "ratings": null,
    "rent_avg": null,
    "transit_minutes": null
  },
  {
    "slug": "hatanodai",
    "name_en": "Hatanodai",
    "name_jp": "旗の台",
    "lat": 35.604923,
    "lng": 139.702286,
    "lines": [
      "26004",
      "26005"
    ],
    "line_count": 2,
    "prefecture": "13",
    "ratings": null,
    "rent_avg": null,
    "transit_minutes": null
  },
  {
    "slug": "hatchobori",
    "name_en": "Hatchobori",
    "name_jp": "八丁堀",
    "lat": 35.674617,
    "lng": 139.777705,
    "lines": [
      "11326",
      "28003"
    ],
    "line_count": 2,
    "prefecture": "13",
    "ratings": null,
    "rent_avg": null,
    "transit_minutes": null
  },
  {
    "slug": "hatchonawate",
    "name_en": "Hatchonawate",
    "name_jp": "八丁畷",
    "lat": 35.523071,
    "lng": 139.691446,
    "lines": [
      "11303",
      "27001"
    ],
    "line_count": 2,
    "prefecture": "14",
    "ratings": null,
    "rent_avg": null,
    "transit_minutes": null
  },
  {
    "slug": "heiwadai",
    "name_en": "Heiwadai",
    "name_jp": "平和台",
    "lat": 35.757863,
    "lng": 139.653762,
    "lines": [
      "28006",
      "28010"
    ],
    "line_count": 2,
    "prefecture": "13",
    "ratings": null,
    "rent_avg": null,
    "transit_minutes": null
  },
  {
    "slug": "higashi-fuchu",
    "name_en": "Higashi-Fuchu",
    "name_jp": "東府中",
    "lat": 35.668766,
    "lng": 139.495257,
    "lines": [
      "24001",
      "24004"
    ],
    "line_count": 2,
    "prefecture": "13",
    "ratings": null,
    "rent_avg": null,
    "transit_minutes": null
  },
  {
    "slug": "higashi-ikebukuro",
    "name_en": "Higashi-Ikebukuro",
    "name_jp": "東池袋",
    "lat": 35.725732,
    "lng": 139.719546,
    "lines": [
      "28006",
      "99305"
    ],
    "line_count": 2,
    "prefecture": "13",
    "ratings": null,
    "rent_avg": null,
    "transit_minutes": null
  },
  {
    "slug": "higashi-nakano",
    "name_en": "Higashi-Nakano",
    "name_jp": "東中野",
    "lat": 35.706529,
    "lng": 139.684436,
    "lines": [
      "11313",
      "99301"
    ],
    "line_count": 2,
    "prefecture": "13",
    "ratings": null,
    "rent_avg": null,
    "transit_minutes": null
  },
  {
    "slug": "higashi-shinjuku",
    "name_en": "Higashi-Shinjuku",
    "name_jp": "東新宿",
    "lat": 35.698915,
    "lng": 139.707593,
    "lines": [
      "28010",
      "99301"
    ],
    "line_count": 2,
    "prefecture": "13",
    "ratings": null,
    "rent_avg": null,
    "transit_minutes": null
  },
  {
    "slug": "higashiginza",
    "name_en": "Higashiginza",
    "name_jp": "東銀座",
    "lat": 35.669464,
    "lng": 139.767253,
    "lines": [
      "28003",
      "99302"
    ],
    "line_count": 2,
    "prefecture": "13",
    "ratings": null,
    "rent_avg": null,
    "transit_minutes": null
  },
  {
    "slug": "higashikawaguchi",
    "name_en": "Higashikawaguchi",
    "name_jp": "東川口",
    "lat": 35.875246,
    "lng": 139.744087,
    "lines": [
      "11305",
      "99307"
    ],
    "line_count": 2,
    "prefecture": "11",
    "ratings": null,
    "rent_avg": null,
    "transit_minutes": null
  },
  {
    "slug": "higashinarita",
    "name_en": "Higashinarita",
    "name_jp": "東成田",
    "lat": 35.770091,
    "lng": 140.387225,
    "lines": [
      "23001",
      "99324"
    ],
    "line_count": 2,
    "prefecture": "12",
    "ratings": null,
    "rent_avg": null,
    "transit_minutes": null
  },
  {
    "slug": "higashitotsuka",
    "name_en": "Higashitotsuka",
    "name_jp": "東戸塚",
    "lat": 35.430353,
    "lng": 139.556794,
    "lines": [
      "11308",
      "11333"
    ],
    "line_count": 2,
    "prefecture": "14",
    "ratings": null,
    "rent_avg": null,
    "transit_minutes": null
  },
  {
    "slug": "hikawadai",
    "name_en": "Hikawadai",
    "name_jp": "氷川台",
    "lat": 35.74955,
    "lng": 139.665567,
    "lines": [
      "28006",
      "28010"
    ],
    "line_count": 2,
    "prefecture": "13",
    "ratings": null,
    "rent_avg": null,
    "transit_minutes": null
  },
  {
    "slug": "hino",
    "name_en": "Hino",
    "name_jp": "日野",
    "lat": 35.679244,
    "lng": 139.39393,
    "lines": [
      "11311",
      "11312"
    ],
    "line_count": 2,
    "prefecture": "13",
    "ratings": null,
    "rent_avg": null,
    "transit_minutes": null
  },
  {
    "slug": "ho-tsuchi-ke-tani",
    "name_en": "Ho-Tsuchi-Ke-Tani",
    "name_jp": "保土ケ谷",
    "lat": 35.446746,
    "lng": 139.599671,
    "lines": [
      "11308",
      "11333"
    ],
    "line_count": 2,
    "prefecture": "14",
    "ratings": null,
    "rent_avg": null,
    "transit_minutes": null
  },
  {
    "slug": "hokucho-kasumi",
    "name_en": "Hokucho-Kasumi",
    "name_jp": "北朝霞",
    "lat": 35.815475,
    "lng": 139.587322,
    "lines": [
      "11305",
      "21001"
    ],
    "line_count": 2,
    "prefecture": "11",
    "ratings": null,
    "rent_avg": null,
    "transit_minutes": null
  },
  {
    "slug": "honchiba",
    "name_en": "Honchiba",
    "name_jp": "本千葉",
    "lat": 35.601202,
    "lng": 140.120987,
    "lines": [
      "11324",
      "11325"
    ],
    "line_count": 2,
    "prefecture": "12",
    "ratings": null,
    "rent_avg": null,
    "transit_minutes": null
  },
  {
    "slug": "hongo-sanchome",
    "name_en": "Hongo-Sanchome",
    "name_jp": "本郷三丁目",
    "lat": 35.706671,
    "lng": 139.759914,
    "lines": [
      "28002",
      "99301"
    ],
    "line_count": 2,
    "prefecture": "13",
    "ratings": null,
    "rent_avg": null,
    "transit_minutes": null
  },
  {
    "slug": "hori-no-nai",
    "name_en": "Hori-No-Nai",
    "name_jp": "堀ノ内",
    "lat": 35.26322,
    "lng": 139.686932,
    "lines": [
      "27001",
      "27005"
    ],
    "line_count": 2,
    "prefecture": "14",
    "ratings": null,
    "rent_avg": null,
    "transit_minutes": null
  },
  {
    "slug": "ichikawa",
    "name_en": "Ichikawa",
    "name_jp": "市川",
    "lat": 35.728903,
    "lng": 139.908142,
    "lines": [
      "11313",
      "11314"
    ],
    "line_count": 2,
    "prefecture": "12",
    "ratings": null,
    "rent_avg": null,
    "transit_minutes": null
  },
  {
    "slug": "inage",
    "name_en": "Inage",
    "name_jp": "稲毛",
    "lat": 35.637264,
    "lng": 140.09256,
    "lines": [
      "11313",
      "11314"
    ],
    "line_count": 2,
    "prefecture": "12",
    "ratings": null,
    "rent_avg": null,
    "transit_minutes": null
  },
  {
    "slug": "inba-nippon-idai",
    "name_en": "Inba-Nippon-Idai",
    "name_jp": "印旛日本医大",
    "lat": 35.787512,
    "lng": 140.203112,
    "lines": [
      "23006",
      "99340"
    ],
    "line_count": 2,
    "prefecture": "12",
    "ratings": null,
    "rent_avg": null,
    "transit_minutes": null
  },
  {
    "slug": "jiyugaoka",
    "name_en": "Jiyugaoka",
    "name_jp": "自由が丘",
    "lat": 35.607224,
    "lng": 139.668664,
    "lines": [
      "26001",
      "26004"
    ],
    "line_count": 2,
    "prefecture": "13",
    "ratings": null,
    "rent_avg": null,
    "transit_minutes": null
  },
  {
    "slug": "kamakura",
    "name_en": "Kamakura",
    "name_jp": "鎌倉",
    "lat": 35.318793,
    "lng": 139.550428,
    "lines": [
      "11308",
      "99320"
    ],
    "line_count": 2,
    "prefecture": "14",
    "ratings": null,
    "rent_avg": null,
    "transit_minutes": null
  },
  {
    "slug": "kameido",
    "name_en": "Kameido",
    "name_jp": "亀戸",
    "lat": 35.697345,
    "lng": 139.826262,
    "lines": [
      "11313",
      "21005"
    ],
    "line_count": 2,
    "prefecture": "13",
    "ratings": null,
    "rent_avg": null,
    "transit_minutes": null
  },
  {
    "slug": "kamiooka",
    "name_en": "Kamiooka",
    "name_jp": "上大岡",
    "lat": 35.409418,
    "lng": 139.596552,
    "lines": [
      "27001",
      "99316"
    ],
    "line_count": 2,
    "prefecture": "14",
    "ratings": null,
    "rent_avg": null,
    "transit_minutes": null
  },
  {
    "slug": "kanamachi",
    "name_en": "Kanamachi",
    "name_jp": "金町",
    "lat": 35.769582,
    "lng": 139.870482,
    "lines": [
      "11320",
      "23003"
    ],
    "line_count": 2,
    "prefecture": "13",
    "ratings": null,
    "rent_avg": null,
    "transit_minutes": null
  },
  {
    "slug": "kanamecho",
    "name_en": "Kanamecho",
    "name_jp": "要町",
    "lat": 35.73323,
    "lng": 139.698715,
    "lines": [
      "28006",
      "28010"
    ],
    "line_count": 2,
    "prefecture": "13",
    "ratings": null,
    "rent_avg": null,
    "transit_minutes": null
  },
  {
    "slug": "kasuga",
    "name_en": "Kasuga",
    "name_jp": "春日",
    "lat": 35.709598,
    "lng": 139.75325,
    "lines": [
      "99301",
      "99303"
    ],
    "line_count": 2,
    "prefecture": "13",
    "ratings": null,
    "rent_avg": null,
    "transit_minutes": null
  },
  {
    "slug": "kasukabe",
    "name_en": "Kasukabe",
    "name_jp": "春日部",
    "lat": 35.980095,
    "lng": 139.752345,
    "lines": [
      "21002",
      "21004"
    ],
    "line_count": 2,
    "prefecture": "11",
    "ratings": null,
    "rent_avg": null,
    "transit_minutes": null
  },
  {
    "slug": "katori",
    "name_en": "Katori",
    "name_jp": "香取",
    "lat": 35.897856,
    "lng": 140.532367,
    "lines": [
      "11327",
      "11329"
    ],
    "line_count": 2,
    "prefecture": "12",
    "ratings": null,
    "rent_avg": null,
    "transit_minutes": null
  },
  {
    "slug": "katsuta-dai",
    "name_en": "Katsuta-Dai",
    "name_jp": "勝田台",
    "lat": 35.715445,
    "lng": 140.126053,
    "lines": [
      "23001",
      "99338"
    ],
    "line_count": 2,
    "prefecture": "12",
    "ratings": null,
    "rent_avg": null,
    "transit_minutes": null
  },
  {
    "slug": "kayabacho",
    "name_en": "Kayabacho",
    "name_jp": "茅場町",
    "lat": 35.679752,
    "lng": 139.780005,
    "lines": [
      "28003",
      "28004"
    ],
    "line_count": 2,
    "prefecture": "13",
    "ratings": null,
    "rent_avg": null,
    "transit_minutes": null
  },
  {
    "slug": "kazusanakano",
    "name_en": "Kazusanakano",
    "name_jp": "上総中野",
    "lat": 35.250051,
    "lng": 140.199571,
    "lines": [
      "99308",
      "99325"
    ],
    "line_count": 2,
    "prefecture": "12",
    "ratings": null,
    "rent_avg": null,
    "transit_minutes": null
  },
  {
    "slug": "keikyu-kamata",
    "name_en": "Keikyu-Kamata",
    "name_jp": "京急蒲田",
    "lat": 35.560796,
    "lng": 139.723681,
    "lines": [
      "27001",
      "27002"
    ],
    "line_count": 2,
    "prefecture": "13",
    "ratings": null,
    "rent_avg": null,
    "transit_minutes": null
  },
  {
    "slug": "keikyu-kawasaki",
    "name_en": "Keikyu-Kawasaki",
    "name_jp": "京急川崎",
    "lat": 35.53285,
    "lng": 139.700893,
    "lines": [
      "27001",
      "27003"
    ],
    "line_count": 2,
    "prefecture": "14",
    "ratings": null,
    "rent_avg": null,
    "transit_minutes": null
  },
  {
    "slug": "keio-nagayama",
    "name_en": "Keio-Nagayama",
    "name_jp": "京王永山",
    "lat": 35.630102,
    "lng": 139.448204,
    "lines": [
      "24002",
      "25003"
    ],
    "line_count": 2,
    "prefecture": "13",
    "ratings": null,
    "rent_avg": null,
    "transit_minutes": null
  },
  {
    "slug": "keiseiueno",
    "name_en": "Keiseiueno",
    "name_jp": "京成上野",
    "lat": 35.711232,
    "lng": 139.773571,
    "lines": [
      "23001",
      "23006"
    ],
    "line_count": 2,
    "prefecture": "13",
    "ratings": null,
    "rent_avg": null,
    "transit_minutes": null
  },
  {
    "slug": "kikuna",
    "name_en": "Kikuna",
    "name_jp": "菊名",
    "lat": 35.509749,
    "lng": 139.630147,
    "lines": [
      "11306",
      "26001"
    ],
    "line_count": 2,
    "prefecture": "14",
    "ratings": null,
    "rent_avg": null,
    "transit_minutes": null
  },
  {
    "slug": "kisarazu",
    "name_en": "Kisarazu",
    "name_jp": "木更津",
    "lat": 35.381668,
    "lng": 139.92611,
    "lines": [
      "11325",
      "11330"
    ],
    "line_count": 2,
    "prefecture": "12",
    "ratings": null,
    "rent_avg": null,
    "transit_minutes": null
  },
  {
    "slug": "kitanarashino",
    "name_en": "Kitanarashino",
    "name_jp": "北習志野",
    "lat": 35.721328,
    "lng": 140.042195,
    "lines": [
      "99329",
      "99338"
    ],
    "line_count": 2,
    "prefecture": "12",
    "ratings": null,
    "rent_avg": null,
    "transit_minutes": null
  },
  {
    "slug": "kitano",
    "name_en": "Kitano",
    "name_jp": "北野",
    "lat": 35.644479,
    "lng": 139.354489,
    "lines": [
      "24001",
      "24003"
    ],
    "line_count": 2,
    "prefecture": "13",
    "ratings": null,
    "rent_avg": null,
    "transit_minutes": null
  },
  {
    "slug": "kiyosumi-shirakawa",
    "name_en": "Kiyosumi-Shirakawa",
    "name_jp": "清澄白河",
    "lat": 35.682105,
    "lng": 139.798851,
    "lines": [
      "28008",
      "99301"
    ],
    "line_count": 2,
    "prefecture": "13",
    "ratings": null,
    "rent_avg": null,
    "transit_minutes": null
  },
  {
    "slug": "kodaira",
    "name_en": "Kodaira",
    "name_jp": "小平",
    "lat": 35.736963,
    "lng": 139.488491,
    "lines": [
      "22007",
      "22008"
    ],
    "line_count": 2,
    "prefecture": "13",
    "ratings": null,
    "rent_avg": null,
    "transit_minutes": null
  },
  {
    "slug": "koenji",
    "name_en": "Koenji",
    "name_jp": "高円寺",
    "lat": 35.705326,
    "lng": 139.649664,
    "lines": [
      "11312",
      "11313"
    ],
    "line_count": 2,
    "prefecture": "13",
    "ratings": null,
    "rent_avg": null,
    "transit_minutes": null
  },
  {
    "slug": "kokkai-gijidomae",
    "name_en": "Kokkai-Gijidomae",
    "name_jp": "国会議事堂前",
    "lat": 35.67393,
    "lng": 139.745219,
    "lines": [
      "28002",
      "28005"
    ],
    "line_count": 2,
    "prefecture": "13",
    "ratings": null,
    "rent_avg": null,
    "transit_minutes": null
  },
  {
    "slug": "komagome",
    "name_en": "Komagome",
    "name_jp": "駒込",
    "lat": 35.736825,
    "lng": 139.748053,
    "lines": [
      "11302",
      "28009"
    ],
    "line_count": 2,
    "prefecture": "13",
    "ratings": null,
    "rent_avg": null,
    "transit_minutes": null
  },
  {
    "slug": "korakuen",
    "name_en": "Korakuen",
    "name_jp": "後楽園",
    "lat": 35.707898,
    "lng": 139.751864,
    "lines": [
      "28002",
      "28009"
    ],
    "line_count": 2,
    "prefecture": "13",
    "ratings": null,
    "rent_avg": null,
    "transit_minutes": null
  },
  {
    "slug": "ko-no-shima",
    "name_en": "Ko-No-Shima",
    "name_jp": "江ノ島",
    "lat": 35.311003,
    "lng": 139.487581,
    "lines": [
      "99320",
      "99326"
    ],
    "line_count": 2,
    "prefecture": "14",
    "ratings": null,
    "rent_avg": null,
    "transit_minutes": null
  },
  {
    "slug": "korai",
    "name_en": "Korai",
    "name_jp": "高麗",
    "lat": 35.881982,
    "lng": 139.304414,
    "lines": [
      "22001",
      "22002"
    ],
    "line_count": 2,
    "prefecture": "11",
    "ratings": null,
    "rent_avg": null,
    "transit_minutes": null
  },
  {
    "slug": "kozu",
    "name_en": "Kozu",
    "name_jp": "国府津",
    "lat": 35.280832,
    "lng": 139.212932,
    "lines": [
      "11301",
      "11505"
    ],
    "line_count": 2,
    "prefecture": "14",
    "ratings": null,
    "rent_avg": null,
    "transit_minutes": null
  },
  {
    "slug": "kuki",
    "name_en": "Kuki",
    "name_jp": "久喜",
    "lat": 36.065684,
    "lng": 139.67727,
    "lines": [
      "11319",
      "21002"
    ],
    "line_count": 2,
    "prefecture": "11",
    "ratings": null,
    "rent_avg": null,
    "transit_minutes": null
  },
  {
    "slug": "kumagaya",
    "name_en": "Kumagaya",
    "name_jp": "熊谷",
    "lat": 36.139627,
    "lng": 139.389528,
    "lines": [
      "11323",
      "99306"
    ],
    "line_count": 2,
    "prefecture": "11",
    "ratings": null,
    "rent_avg": null,
    "transit_minutes": null
  },
  {
    "slug": "kumano-mae",
    "name_en": "Kumano-Mae",
    "name_jp": "熊野前",
    "lat": 35.749212,
    "lng": 139.769204,
    "lines": [
      "99305",
      "99342"
    ],
    "line_count": 2,
    "prefecture": "13",
    "ratings": null,
    "rent_avg": null,
    "transit_minutes": null
  },
  {
    "slug": "kuramae",
    "name_en": "Kuramae",
    "name_jp": "蔵前",
    "lat": 35.703236,
    "lng": 139.790931,
    "lines": [
      "99301",
      "99302"
    ],
    "line_count": 2,
    "prefecture": "13",
    "ratings": null,
    "rent_avg": null,
    "transit_minutes": null
  },
  {
    "slug": "kurihama",
    "name_en": "Kurihama",
    "name_jp": "久里浜",
    "lat": 35.233107,
    "lng": 139.700862,
    "lines": [
      "11308",
      "27005"
    ],
    "line_count": 2,
    "prefecture": "14",
    "ratings": null,
    "rent_avg": null,
    "transit_minutes": null
  },
  {
    "slug": "kurihashi",
    "name_en": "Kurihashi",
    "name_jp": "栗橋",
    "lat": 36.136852,
    "lng": 139.694177,
    "lines": [
      "11319",
      "21003"
    ],
    "line_count": 2,
    "prefecture": "11",
    "ratings": null,
    "rent_avg": null,
    "transit_minutes": null
  },
  {
    "slug": "kyobashi",
    "name_en": "Kyobashi",
    "name_jp": "京橋",
    "lat": 35.676856,
    "lng": 139.770126,
    "lines": [
      "28001",
      "99302"
    ],
    "line_count": 2,
    "prefecture": "13",
    "ratings": null,
    "rent_avg": null,
    "transit_minutes": null
  },
  {
    "slug": "mabashi",
    "name_en": "Mabashi",
    "name_jp": "馬橋",
    "lat": 35.811682,
    "lng": 139.917305,
    "lines": [
      "11320",
      "99333"
    ],
    "line_count": 2,
    "prefecture": "12",
    "ratings": null,
    "rent_avg": null,
    "transit_minutes": null
  },
  {
    "slug": "machida",
    "name_en": "Machida",
    "name_jp": "町田",
    "lat": 35.542004,
    "lng": 139.445579,
    "lines": [
      "11306",
      "25001"
    ],
    "line_count": 2,
    "prefecture": "13",
    "ratings": null,
    "rent_avg": null,
    "transit_minutes": null
  },
  {
    "slug": "makuhari",
    "name_en": "Makuhari",
    "name_jp": "幕張",
    "lat": 35.6594,
    "lng": 140.057899,
    "lines": [
      "11313",
      "23004"
    ],
    "line_count": 2,
    "prefecture": "12",
    "ratings": null,
    "rent_avg": null,
    "transit_minutes": null
  },
  {
    "slug": "makuharihongo",
    "name_en": "Makuharihongo",
    "name_jp": "幕張本郷",
    "lat": 35.672664,
    "lng": 140.042241,
    "lines": [
      "11313",
      "23004"
    ],
    "line_count": 2,
    "prefecture": "12",
    "ratings": null,
    "rent_avg": null,
    "transit_minutes": null
  },
  {
    "slug": "matsugishi",
    "name_en": "Matsugishi",
    "name_jp": "松岸",
    "lat": 35.739386,
    "lng": 140.795143,
    "lines": [
      "11314",
      "11327"
    ],
    "line_count": 2,
    "prefecture": "12",
    "ratings": null,
    "rent_avg": null,
    "transit_minutes": null
  },
  {
    "slug": "me-ke-saki",
    "name_en": "Me-Ke-Saki",
    "name_jp": "茅ケ崎",
    "lat": 35.330741,
    "lng": 139.407197,
    "lines": [
      "11301",
      "11309"
    ],
    "line_count": 2,
    "prefecture": "14",
    "ratings": null,
    "rent_avg": null,
    "transit_minutes": null
  },
  {
    "slug": "meidaimae",
    "name_en": "Meidaimae",
    "name_jp": "明大前",
    "lat": 35.668758,
    "lng": 139.650352,
    "lines": [
      "24001",
      "24006"
    ],
    "line_count": 2,
    "prefecture": "13",
    "ratings": null,
    "rent_avg": null,
    "transit_minutes": null
  },
  {
    "slug": "minamiurawa",
    "name_en": "Minamiurawa",
    "name_jp": "南浦和",
    "lat": 35.847648,
    "lng": 139.669125,
    "lines": [
      "11305",
      "11332"
    ],
    "line_count": 2,
    "prefecture": "11",
    "ratings": null,
    "rent_avg": null,
    "transit_minutes": null
  },
  {
    "slug": "mita",
    "name_en": "Mita",
    "name_jp": "三田",
    "lat": 35.64818,
    "lng": 139.748775,
    "lines": [
      "99302",
      "99303"
    ],
    "line_count": 2,
    "prefecture": "13",
    "ratings": null,
    "rent_avg": null,
    "transit_minutes": null
  },
  {
    "slug": "monzen-nakacho",
    "name_en": "Monzen-Nakacho",
    "name_jp": "門前仲町",
    "lat": 35.671851,
    "lng": 139.796209,
    "lines": [
      "28004",
      "99301"
    ],
    "line_count": 2,
    "prefecture": "13",
    "ratings": null,
    "rent_avg": null,
    "transit_minutes": null
  },
  {
    "slug": "morishita",
    "name_en": "Morishita",
    "name_jp": "森下",
    "lat": 35.68796,
    "lng": 139.797042,
    "lines": [
      "99301",
      "99304"
    ],
    "line_count": 2,
    "prefecture": "13",
    "ratings": null,
    "rent_avg": null,
    "transit_minutes": null
  },
  {
    "slug": "motosumiyoshi",
    "name_en": "Motosumiyoshi",
    "name_jp": "元住吉",
    "lat": 35.565698,
    "lng": 139.654668,
    "lines": [
      "26001",
      "26002"
    ],
    "line_count": 2,
    "prefecture": "14",
    "ratings": null,
    "rent_avg": null,
    "transit_minutes": null
  },
  {
    "slug": "musashi-sakai",
    "name_en": "Musashi-Sakai",
    "name_jp": "武蔵境",
    "lat": 35.702083,
    "lng": 139.543402,
    "lines": [
      "11312",
      "22012"
    ],
    "line_count": 2,
    "prefecture": "13",
    "ratings": null,
    "rent_avg": null,
    "transit_minutes": null
  },
  {
    "slug": "musashi-yokote",
    "name_en": "Musashi-Yokote",
    "name_jp": "武蔵横手",
    "lat": 35.885256,
    "lng": 139.280667,
    "lines": [
      "22001",
      "22002"
    ],
    "line_count": 2,
    "prefecture": "11",
    "ratings": null,
    "rent_avg": null,
    "transit_minutes": null
  },
  {
    "slug": "musashiurawa",
    "name_en": "Musashiurawa",
    "name_jp": "武蔵浦和",
    "lat": 35.846047,
    "lng": 139.647974,
    "lines": [
      "11305",
      "11321"
    ],
    "line_count": 2,
    "prefecture": "11",
    "ratings": null,
    "rent_avg": null,
    "transit_minutes": null
  },
  {
    "slug": "nagareyama-otakano-mori",
    "name_en": "Nagareyama-Otakano-Mori",
    "name_jp": "流山おおたかの森",
    "lat": 35.872051,
    "lng": 139.925898,
    "lines": [
      "21004",
      "99309"
    ],
    "line_count": 2,
    "prefecture": "12",
    "ratings": null,
    "rent_avg": null,
    "transit_minutes": null
  },
  {
    "slug": "nakai",
    "name_en": "Nakai",
    "name_jp": "中井",
    "lat": 35.715106,
    "lng": 139.686967,
    "lines": [
      "22007",
      "99301"
    ],
    "line_count": 2,
    "prefecture": "13",
    "ratings": null,
    "rent_avg": null,
    "transit_minutes": null
  },
  {
    "slug": "nakameguro",
    "name_en": "Nakameguro",
    "name_jp": "中目黒",
    "lat": 35.643854,
    "lng": 139.698621,
    "lines": [
      "26001",
      "28003"
    ],
    "line_count": 2,
    "prefecture": "13",
    "ratings": null,
    "rent_avg": null,
    "transit_minutes": null
  },
  {
    "slug": "nakanobe",
    "name_en": "Nakanobe",
    "name_jp": "中延",
    "lat": 35.60571,
    "lng": 139.712526,
    "lines": [
      "26004",
      "99302"
    ],
    "line_count": 2,
    "prefecture": "13",
    "ratings": null,
    "rent_avg": null,
    "transit_minutes": null
  },
  {
    "slug": "nakayama",
    "name_en": "Nakayama",
    "name_jp": "中山",
    "lat": 35.514745,
    "lng": 139.539692,
    "lines": [
      "11306",
      "99343"
    ],
    "line_count": 2,
    "prefecture": "14",
    "ratings": null,
    "rent_avg": null,
    "transit_minutes": null
  },
  {
    "slug": "nan-etsu-tani",
    "name_en": "Nan'etsu-Tani",
    "name_jp": "南越谷",
    "lat": 35.876106,
    "lng": 139.790499,
    "lines": [
      "11305",
      "21002"
    ],
    "line_count": 2,
    "prefecture": "11",
    "ratings": null,
    "rent_avg": null,
    "transit_minutes": null
  },
  {
    "slug": "nanryu-yama",
    "name_en": "Nanryu-Yama",
    "name_jp": "南流山",
    "lat": 35.838035,
    "lng": 139.903865,
    "lines": [
      "11305",
      "99309"
    ],
    "line_count": 2,
    "prefecture": "12",
    "ratings": null,
    "rent_avg": null,
    "transit_minutes": null
  },
  {
    "slug": "naruto",
    "name_en": "Naruto",
    "name_jp": "成東",
    "lat": 35.608513,
    "lng": 140.410109,
    "lines": [
      "11314",
      "11331"
    ],
    "line_count": 2,
    "prefecture": "12",
    "ratings": null,
    "rent_avg": null,
    "transit_minutes": null
  },
  {
    "slug": "ningyocho",
    "name_en": "Ningyocho",
    "name_jp": "人形町",
    "lat": 35.686307,
    "lng": 139.782285,
    "lines": [
      "28003",
      "99302"
    ],
    "line_count": 2,
    "prefecture": "13",
    "ratings": null,
    "rent_avg": null,
    "transit_minutes": null
  },
  {
    "slug": "nishi-hachioji",
    "name_en": "Nishi-Hachioji",
    "name_jp": "西八王子",
    "lat": 35.656621,
    "lng": 139.31264,
    "lines": [
      "11311",
      "11312"
    ],
    "line_count": 2,
    "prefecture": "13",
    "ratings": null,
    "rent_avg": null,
    "transit_minutes": null
  },
  {
    "slug": "nishi-kokubunji",
    "name_en": "Nishi-Kokubunji",
    "name_jp": "西国分寺",
    "lat": 35.699744,
    "lng": 139.465994,
    "lines": [
      "11305",
      "11312"
    ],
    "line_count": 2,
    "prefecture": "13",
    "ratings": null,
    "rent_avg": null,
    "transit_minutes": null
  },
  {
    "slug": "nishi-oi",
    "name_en": "Nishi-Oi",
    "name_jp": "西大井",
    "lat": 35.601616,
    "lng": 139.721729,
    "lines": [
      "11308",
      "11333"
    ],
    "line_count": 2,
    "prefecture": "13",
    "ratings": null,
    "rent_avg": null,
    "transit_minutes": null
  },
  {
    "slug": "nishi-tokorozawa",
    "name_en": "Nishi-Tokorozawa",
    "name_jp": "西所沢",
    "lat": 35.789303,
    "lng": 139.455959,
    "lines": [
      "22001",
      "22005"
    ],
    "line_count": 2,
    "prefecture": "11",
    "ratings": null,
    "rent_avg": null,
    "transit_minutes": null
  },
  {
    "slug": "nishiarai",
    "name_en": "Nishiarai",
    "name_jp": "西新井",
    "lat": 35.777323,
    "lng": 139.790372,
    "lines": [
      "21002",
      "21006"
    ],
    "line_count": 2,
    "prefecture": "13",
    "ratings": null,
    "rent_avg": null,
    "transit_minutes": null
  },
  {
    "slug": "nishiogikubo",
    "name_en": "Nishiogikubo",
    "name_jp": "西荻窪",
    "lat": 35.703842,
    "lng": 139.599361,
    "lines": [
      "11312",
      "11313"
    ],
    "line_count": 2,
    "prefecture": "13",
    "ratings": null,
    "rent_avg": null,
    "transit_minutes": null
  },
  {
    "slug": "noborito",
    "name_en": "Noborito",
    "name_jp": "登戸",
    "lat": 35.620889,
    "lng": 139.570028,
    "lines": [
      "11303",
      "25001"
    ],
    "line_count": 2,
    "prefecture": "14",
    "ratings": null,
    "rent_avg": null,
    "transit_minutes": null
  },
  {
    "slug": "ogawa",
    "name_en": "Ogawa",
    "name_jp": "小川",
    "lat": 35.737573,
    "lng": 139.463493,
    "lines": [
      "22008",
      "22010"
    ],
    "line_count": 2,
    "prefecture": "13",
    "ratings": null,
    "rent_avg": null,
    "transit_minutes": null
  },
  {
    "slug": "ogawacho",
    "name_en": "Ogawacho",
    "name_jp": "小川町",
    "lat": 36.05903,
    "lng": 139.260412,
    "lines": [
      "11318",
      "21001"
    ],
    "line_count": 2,
    "prefecture": "11",
    "ratings": null,
    "rent_avg": null,
    "transit_minutes": null
  },
  {
    "slug": "ogose",
    "name_en": "Ogose",
    "name_jp": "越生",
    "lat": 35.962559,
    "lng": 139.299437,
    "lines": [
      "11318",
      "21007"
    ],
    "line_count": 2,
    "prefecture": "11",
    "ratings": null,
    "rent_avg": null,
    "transit_minutes": null
  },
  {
    "slug": "oku",
    "name_en": "Oku",
    "name_jp": "尾久",
    "lat": 35.74683,
    "lng": 139.753846,
    "lines": [
      "11319",
      "11323"
    ],
    "line_count": 2,
    "prefecture": "13",
    "ratings": null,
    "rent_avg": null,
    "transit_minutes": null
  },
  {
    "slug": "oami",
    "name_en": "Oami",
    "name_jp": "大網",
    "lat": 35.522427,
    "lng": 140.311111,
    "lines": [
      "11324",
      "11331"
    ],
    "line_count": 2,
    "prefecture": "12",
    "ratings": null,
    "rent_avg": null,
    "transit_minutes": null
  },
  {
    "slug": "ohara",
    "name_en": "Ohara",
    "name_jp": "大原",
    "lat": 35.251097,
    "lng": 140.390864,
    "lines": [
      "11324",
      "99308"
    ],
    "line_count": 2,
    "prefecture": "12",
    "ratings": null,
    "rent_avg": null,
    "transit_minutes": null
  },
  {
    "slug": "ookayama",
    "name_en": "Ookayama",
    "name_jp": "大岡山",
    "lat": 35.607456,
    "lng": 139.685909,
    "lines": [
      "26002",
      "26004"
    ],
    "line_count": 2,
    "prefecture": "13",
    "ratings": null,
    "rent_avg": null,
    "transit_minutes": null
  },
  {
    "slug": "otsuka",
    "name_en": "Otsuka",
    "name_jp": "大塚",
    "lat": 35.731412,
    "lng": 139.728584,
    "lines": [
      "11302",
      "99305"
    ],
    "line_count": 2,
    "prefecture": "13",
    "ratings": null,
    "rent_avg": null,
    "transit_minutes": null
  },
  {
    "slug": "roppongi",
    "name_en": "Roppongi",
    "name_jp": "六本木",
    "lat": 35.662836,
    "lng": 139.731443,
    "lines": [
      "28003",
      "99301"
    ],
    "line_count": 2,
    "prefecture": "13",
    "ratings": null,
    "rent_avg": null,
    "transit_minutes": null
  },
  {
    "slug": "ryogoku",
    "name_en": "Ryogoku",
    "name_jp": "両国",
    "lat": 35.69579,
    "lng": 139.793334,
    "lines": [
      "11313",
      "99301"
    ],
    "line_count": 2,
    "prefecture": "13",
    "ratings": null,
    "rent_avg": null,
    "transit_minutes": null
  },
  {
    "slug": "sagamiono",
    "name_en": "Sagamiono",
    "name_jp": "相模大野",
    "lat": 35.532208,
    "lng": 139.437836,
    "lines": [
      "25001",
      "25002"
    ],
    "line_count": 2,
    "prefecture": "14",
    "ratings": null,
    "rent_avg": null,
    "transit_minutes": null
  },
  {
    "slug": "sakato",
    "name_en": "Sakato",
    "name_jp": "坂戸",
    "lat": 35.957181,
    "lng": 139.394032,
    "lines": [
      "21001",
      "21007"
    ],
    "line_count": 2,
    "prefecture": "11",
    "ratings": null,
    "rent_avg": null,
    "transit_minutes": null
  },
  {
    "slug": "sakura",
    "name_en": "Sakura",
    "name_jp": "佐倉",
    "lat": 35.709743,
    "lng": 140.226722,
    "lines": [
      "11314",
      "11327"
    ],
    "line_count": 2,
    "prefecture": "12",
    "ratings": null,
    "rent_avg": null,
    "transit_minutes": null
  },
  {
    "slug": "sakuragicho",
    "name_en": "Sakuragicho",
    "name_jp": "桜木町",
    "lat": 35.451112,
    "lng": 139.630881,
    "lines": [
      "11307",
      "99316"
    ],
    "line_count": 2,
    "prefecture": "14",
    "ratings": null,
    "rent_avg": null,
    "transit_minutes": null
  },
  {
    "slug": "sangenjaya",
    "name_en": "Sangenjaya",
    "name_jp": "三軒茶屋",
    "lat": 35.643716,
    "lng": 139.670156,
    "lines": [
      "26003",
      "26007"
    ],
    "line_count": 2,
    "prefecture": "13",
    "ratings": null,
    "rent_avg": null,
    "transit_minutes": null
  },
  {
    "slug": "sasazuka",
    "name_en": "Sasazuka",
    "name_jp": "笹塚",
    "lat": 35.673758,
    "lng": 139.667251,
    "lines": [
      "24001",
      "24007"
    ],
    "line_count": 2,
    "prefecture": "13",
    "ratings": null,
    "rent_avg": null,
    "transit_minutes": null
  },
  {
    "slug": "sawara",
    "name_en": "Sawara",
    "name_jp": "佐原",
    "lat": 35.894522,
    "lng": 140.494074,
    "lines": [
      "11327",
      "11329"
    ],
    "line_count": 2,
    "prefecture": "12",
    "ratings": null,
    "rent_avg": null,
    "transit_minutes": null
  },
  {
    "slug": "seibu-yuenchi",
    "name_en": "Seibu-Yuenchi",
    "name_jp": "西武遊園地",
    "lat": 35.765881,
    "lng": 139.442747,
    "lines": [
      "22006",
      "22011"
    ],
    "line_count": 2,
    "prefecture": "13",
    "ratings": null,
    "rent_avg": null,
    "transit_minutes": null
  },
  {
    "slug": "seibukyujo-mae",
    "name_en": "Seibukyujo-Mae",
    "name_jp": "西武球場前",
    "lat": 35.77093,
    "lng": 139.41966,
    "lines": [
      "22005",
      "22006"
    ],
    "line_count": 2,
    "prefecture": "11",
    "ratings": null,
    "rent_avg": null,
    "transit_minutes": null
  },
  {
    "slug": "sekiuchi",
    "name_en": "Sekiuchi",
    "name_jp": "関内",
    "lat": 35.443336,
    "lng": 139.636984,
    "lines": [
      "11307",
      "99316"
    ],
    "line_count": 2,
    "prefecture": "14",
    "ratings": null,
    "rent_avg": null,
    "transit_minutes": null
  },
  {
    "slug": "sengakuji",
    "name_en": "Sengakuji",
    "name_jp": "泉岳寺",
    "lat": 35.638692,
    "lng": 139.74002,
    "lines": [
      "27001",
      "99302"
    ],
    "line_count": 2,
    "prefecture": "13",
    "ratings": null,
    "rent_avg": null,
    "transit_minutes": null
  },
  {
    "slug": "senkawa",
    "name_en": "Senkawa",
    "name_jp": "千川",
    "lat": 35.738229,
    "lng": 139.689271,
    "lines": [
      "28006",
      "28010"
    ],
    "line_count": 2,
    "prefecture": "13",
    "ratings": null,
    "rent_avg": null,
    "transit_minutes": null
  },
  {
    "slug": "sentaa-kita",
    "name_en": "Sentaa-Kita",
    "name_jp": "センター北",
    "lat": 35.55353,
    "lng": 139.578457,
    "lines": [
      "99316",
      "99343"
    ],
    "line_count": 2,
    "prefecture": "14",
    "ratings": null,
    "rent_avg": null,
    "transit_minutes": null
  },
  {
    "slug": "sentaa-minami",
    "name_en": "Sentaa-Minami",
    "name_jp": "センター南",
    "lat": 35.545476,
    "lng": 139.574291,
    "lines": [
      "99316",
      "99343"
    ],
    "line_count": 2,
    "prefecture": "14",
    "ratings": null,
    "rent_avg": null,
    "transit_minutes": null
  },
  {
    "slug": "shimokitazawa",
    "name_en": "Shimokitazawa",
    "name_jp": "下北沢",
    "lat": 35.661539,
    "lng": 139.66691,
    "lines": [
      "24006",
      "25001"
    ],
    "line_count": 2,
    "prefecture": "13",
    "ratings": null,
    "rent_avg": null,
    "transit_minutes": null
  },
  {
    "slug": "shimotakaido",
    "name_en": "Shimotakaido",
    "name_jp": "下高井戸",
    "lat": 35.66615,
    "lng": 139.641372,
    "lines": [
      "24001",
      "26007"
    ],
    "line_count": 2,
    "prefecture": "13",
    "ratings": null,
    "rent_avg": null,
    "transit_minutes": null
  },
  {
    "slug": "shin-koiwa",
    "name_en": "Shin-Koiwa",
    "name_jp": "新小岩",
    "lat": 35.716903,
    "lng": 139.857777,
    "lines": [
      "11313",
      "11314"
    ],
    "line_count": 2,
    "prefecture": "13",
    "ratings": null,
    "rent_avg": null,
    "transit_minutes": null
  },
  {
    "slug": "shin-okachimachi",
    "name_en": "Shin-Okachimachi",
    "name_jp": "新御徒町",
    "lat": 35.707045,
    "lng": 139.781958,
    "lines": [
      "99301",
      "99309"
    ],
    "line_count": 2,
    "prefecture": "13",
    "ratings": null,
    "rent_avg": null,
    "transit_minutes": null
  },
  {
    "slug": "shin-sugita",
    "name_en": "Shin-Sugita",
    "name_jp": "新杉田",
    "lat": 35.386863,
    "lng": 139.619483,
    "lines": [
      "11307",
      "99317"
    ],
    "line_count": 2,
    "prefecture": "14",
    "ratings": null,
    "rent_avg": null,
    "transit_minutes": null
  },
  {
    "slug": "shinkawasaki",
    "name_en": "Shinkawasaki",
    "name_jp": "新川崎",
    "lat": 35.551784,
    "lng": 139.671481,
    "lines": [
      "11308",
      "11333"
    ],
    "line_count": 2,
    "prefecture": "14",
    "ratings": null,
    "rent_avg": null,
    "transit_minutes": null
  },
  {
    "slug": "shinkoyasu",
    "name_en": "Shinkoyasu",
    "name_jp": "新子安",
    "lat": 35.487064,
    "lng": 139.654776,
    "lines": [
      "11332",
      "27001"
    ],
    "line_count": 2,
    "prefecture": "14",
    "ratings": null,
    "rent_avg": null,
    "transit_minutes": null
  },
  {
    "slug": "shinmaruko",
    "name_en": "Shinmaruko",
    "name_jp": "新丸子",
    "lat": 35.58049,
    "lng": 139.661964,
    "lines": [
      "26001",
      "26002"
    ],
    "line_count": 2,
    "prefecture": "14",
    "ratings": null,
    "rent_avg": null,
    "transit_minutes": null
  },
  {
    "slug": "shinpachi-hashira",
    "name_en": "Shinpachi-Hashira",
    "name_jp": "新八柱",
    "lat": 35.792013,
    "lng": 139.938393,
    "lines": [
      "11305",
      "99329"
    ],
    "line_count": 2,
    "prefecture": "12",
    "ratings": null,
    "rent_avg": null,
    "transit_minutes": null
  },
  {
    "slug": "shinyokohama",
    "name_en": "Shinyokohama",
    "name_jp": "新横浜",
    "lat": 35.506824,
    "lng": 139.617348,
    "lines": [
      "11306",
      "99316"
    ],
    "line_count": 2,
    "prefecture": "14",
    "ratings": null,
    "rent_avg": null,
    "transit_minutes": null
  },
  {
    "slug": "shinyuri-ke-oka",
    "name_en": "Shinyuri-Ke-Oka",
    "name_jp": "新百合ヶ丘",
    "lat": 35.603705,
    "lng": 139.507608,
    "lines": [
      "25001",
      "25003"
    ],
    "line_count": 2,
    "prefecture": "14",
    "ratings": null,
    "rent_avg": null,
    "transit_minutes": null
  },
  {
    "slug": "shiodome",
    "name_en": "Shiodome",
    "name_jp": "汐留",
    "lat": 35.663703,
    "lng": 139.760642,
    "lines": [
      "99301",
      "99311"
    ],
    "line_count": 2,
    "prefecture": "13",
    "ratings": null,
    "rent_avg": null,
    "transit_minutes": null
  },
  {
    "slug": "shirokane-takanawa",
    "name_en": "Shirokane-Takanawa",
    "name_jp": "白金高輪",
    "lat": 35.642903,
    "lng": 139.734104,
    "lines": [
      "28009",
      "99303"
    ],
    "line_count": 2,
    "prefecture": "13",
    "ratings": null,
    "rent_avg": null,
    "transit_minutes": null
  },
  {
    "slug": "shirokanedai",
    "name_en": "Shirokanedai",
    "name_jp": "白金台",
    "lat": 35.637917,
    "lng": 139.726133,
    "lines": [
      "28009",
      "99303"
    ],
    "line_count": 2,
    "prefecture": "13",
    "ratings": null,
    "rent_avg": null,
    "transit_minutes": null
  },
  {
    "slug": "shitte",
    "name_en": "Shitte",
    "name_jp": "尻手",
    "lat": 35.530939,
    "lng": 139.684233,
    "lines": [
      "11303",
      "11303"
    ],
    "line_count": 2,
    "prefecture": "14",
    "ratings": null,
    "rent_avg": null,
    "transit_minutes": null
  },
  {
    "slug": "shodai",
    "name_en": "Shodai",
    "name_jp": "初台",
    "lat": 35.68123,
    "lng": 139.686354,
    "lines": [
      "24001",
      "24007"
    ],
    "line_count": 2,
    "prefecture": "13",
    "ratings": null,
    "rent_avg": null,
    "transit_minutes": null
  },
  {
    "slug": "sugamo",
    "name_en": "Sugamo",
    "name_jp": "巣鴨",
    "lat": 35.733445,
    "lng": 139.739303,
    "lines": [
      "11302",
      "99303"
    ],
    "line_count": 2,
    "prefecture": "13",
    "ratings": null,
    "rent_avg": null,
    "transit_minutes": null
  },
  {
    "slug": "suidobashi",
    "name_en": "Suidobashi",
    "name_jp": "水道橋",
    "lat": 35.702039,
    "lng": 139.754312,
    "lines": [
      "11313",
      "99303"
    ],
    "line_count": 2,
    "prefecture": "13",
    "ratings": null,
    "rent_avg": null,
    "transit_minutes": null
  },
  {
    "slug": "sumiyoshi",
    "name_en": "Sumiyoshi",
    "name_jp": "住吉",
    "lat": 35.689073,
    "lng": 139.815681,
    "lines": [
      "28008",
      "99304"
    ],
    "line_count": 2,
    "prefecture": "13",
    "ratings": null,
    "rent_avg": null,
    "transit_minutes": null
  },
  {
    "slug": "tabata",
    "name_en": "Tabata",
    "name_jp": "田端",
    "lat": 35.737781,
    "lng": 139.761229,
    "lines": [
      "11302",
      "11332"
    ],
    "line_count": 2,
    "prefecture": "13",
    "ratings": null,
    "rent_avg": null,
    "transit_minutes": null
  },
  {
    "slug": "takatsu",
    "name_en": "Takatsu",
    "name_jp": "高津",
    "lat": 35.603248,
    "lng": 139.616934,
    "lines": [
      "26003",
      "26004"
    ],
    "line_count": 2,
    "prefecture": "14",
    "ratings": null,
    "rent_avg": null,
    "transit_minutes": null
  },
  {
    "slug": "tama-dobutsu-koen",
    "name_en": "Tama-Dobutsu-Koen",
    "name_jp": "多摩動物公園",
    "lat": 35.649215,
    "lng": 139.404627,
    "lines": [
      "24005",
      "99334"
    ],
    "line_count": 2,
    "prefecture": "13",
    "ratings": null,
    "rent_avg": null,
    "transit_minutes": null
  },
  {
    "slug": "tamachi",
    "name_en": "Tamachi",
    "name_jp": "田町",
    "lat": 35.645736,
    "lng": 139.747575,
    "lines": [
      "11302",
      "11332"
    ],
    "line_count": 2,
    "prefecture": "13",
    "ratings": null,
    "rent_avg": null,
    "transit_minutes": null
  },
  {
    "slug": "tamagawajosui",
    "name_en": "Tamagawajosui",
    "name_jp": "玉川上水",
    "lat": 35.731751,
    "lng": 139.418435,
    "lines": [
      "22008",
      "99334"
    ],
    "line_count": 2,
    "prefecture": "13",
    "ratings": null,
    "rent_avg": null,
    "transit_minutes": null
  },
  {
    "slug": "tameike-sanno",
    "name_en": "Tameike-Sanno",
    "name_jp": "溜池山王",
    "lat": 35.673621,
    "lng": 139.741419,
    "lines": [
      "28001",
      "28009"
    ],
    "line_count": 2,
    "prefecture": "13",
    "ratings": null,
    "rent_avg": null,
    "transit_minutes": null
  },
  {
    "slug": "tenku-hashi",
    "name_en": "Tenku-Hashi",
    "name_jp": "天空橋",
    "lat": 35.548908,
    "lng": 139.75423,
    "lines": [
      "27002",
      "99336"
    ],
    "line_count": 2,
    "prefecture": "13",
    "ratings": null,
    "rent_avg": null,
    "transit_minutes": null
  },
  {
    "slug": "tennodai",
    "name_en": "Tennodai",
    "name_jp": "天王台",
    "lat": 35.872558,
    "lng": 140.04121,
    "lines": [
      "11320",
      "11320"
    ],
    "line_count": 2,
    "prefecture": "12",
    "ratings": null,
    "rent_avg": null,
    "transit_minutes": null
  },
  {
    "slug": "tennozu-isle",
    "name_en": "Tennozu Isle",
    "name_jp": "天王洲アイル",
    "lat": 35.622908,
    "lng": 139.750675,
    "lines": [
      "99336",
      "99337"
    ],
    "line_count": 2,
    "prefecture": "13",
    "ratings": null,
    "rent_avg": null,
    "transit_minutes": null
  },
  {
    "slug": "togoshi-ginza",
    "name_en": "Togoshi-Ginza",
    "name_jp": "戸越銀座",
    "lat": 35.615928,
    "lng": 139.714862,
    "lines": [
      "26005",
      "99302"
    ],
    "line_count": 2,
    "prefecture": "13",
    "ratings": null,
    "rent_avg": null,
    "transit_minutes": null
  },
  {
    "slug": "tokorozawa",
    "name_en": "Tokorozawa",
    "name_jp": "所沢",
    "lat": 35.786627,
    "lng": 139.473324,
    "lines": [
      "22001",
      "22007"
    ],
    "line_count": 2,
    "prefecture": "11",
    "ratings": null,
    "rent_avg": null,
    "transit_minutes": null
  },
  {
    "slug": "toshimaen",
    "name_en": "Toshimaen",
    "name_jp": "豊島園",
    "lat": 35.742054,
    "lng": 139.647979,
    "lines": [
      "22004",
      "99301"
    ],
    "line_count": 2,
    "prefecture": "13",
    "ratings": null,
    "rent_avg": null,
    "transit_minutes": null
  },
  {
    "slug": "togo-no",
    "name_en": "Togo-No",
    "name_jp": "東吾野",
    "lat": 35.892439,
    "lng": 139.260281,
    "lines": [
      "22001",
      "22002"
    ],
    "line_count": 2,
    "prefecture": "11",
    "ratings": null,
    "rent_avg": null,
    "transit_minutes": null
  },
  {
    "slug": "toyosu",
    "name_en": "Toyosu",
    "name_jp": "豊洲",
    "lat": 35.654908,
    "lng": 139.79621,
    "lines": [
      "28006",
      "99311"
    ],
    "line_count": 2,
    "prefecture": "13",
    "ratings": null,
    "rent_avg": null,
    "transit_minutes": null
  },
  {
    "slug": "toyota",
    "name_en": "Toyota",
    "name_jp": "豊田",
    "lat": 35.659502,
    "lng": 139.381495,
    "lines": [
      "11311",
      "11312"
    ],
    "line_count": 2,
    "prefecture": "13",
    "ratings": null,
    "rent_avg": null,
    "transit_minutes": null
  },
  {
    "slug": "tsudanuma",
    "name_en": "Tsudanuma",
    "name_jp": "津田沼",
    "lat": 35.691367,
    "lng": 140.020179,
    "lines": [
      "11313",
      "11314"
    ],
    "line_count": 2,
    "prefecture": "12",
    "ratings": null,
    "rent_avg": null,
    "transit_minutes": null
  },
  {
    "slug": "tsuga",
    "name_en": "Tsuga",
    "name_jp": "都賀",
    "lat": 35.636088,
    "lng": 140.149222,
    "lines": [
      "11314",
      "99332"
    ],
    "line_count": 2,
    "prefecture": "12",
    "ratings": null,
    "rent_avg": null,
    "transit_minutes": null
  },
  {
    "slug": "tsukishima",
    "name_en": "Tsukishima",
    "name_jp": "月島",
    "lat": 35.664871,
    "lng": 139.784233,
    "lines": [
      "28006",
      "99301"
    ],
    "line_count": 2,
    "prefecture": "13",
    "ratings": null,
    "rent_avg": null,
    "transit_minutes": null
  },
  {
    "slug": "uguisudani",
    "name_en": "Uguisudani",
    "name_jp": "鶯谷",
    "lat": 35.721484,
    "lng": 139.778015,
    "lines": [
      "11302",
      "11332"
    ],
    "line_count": 2,
    "prefecture": "13",
    "ratings": null,
    "rent_avg": null,
    "transit_minutes": null
  },
  {
    "slug": "ushita",
    "name_en": "Ushita",
    "name_jp": "牛田",
    "lat": 35.744555,
    "lng": 139.811816,
    "lines": [
      "21002",
      "23001"
    ],
    "line_count": 2,
    "prefecture": "13",
    "ratings": null,
    "rent_avg": null,
    "transit_minutes": null
  },
  {
    "slug": "ware-no",
    "name_en": "Ware-No",
    "name_jp": "吾野",
    "lat": 35.908502,
    "lng": 139.226787,
    "lines": [
      "22001",
      "22002"
    ],
    "line_count": 2,
    "prefecture": "11",
    "ratings": null,
    "rent_avg": null,
    "transit_minutes": null
  },
  {
    "slug": "yamato",
    "name_en": "Yamato",
    "name_jp": "大和",
    "lat": 35.46965,
    "lng": 139.461553,
    "lines": [
      "25002",
      "29001"
    ],
    "line_count": 2,
    "prefecture": "14",
    "ratings": null,
    "rent_avg": null,
    "transit_minutes": null
  },
  {
    "slug": "yotsukaido",
    "name_en": "Yotsukaido",
    "name_jp": "四街道",
    "lat": 35.662756,
    "lng": 140.165023,
    "lines": [
      "11314",
      "11328"
    ],
    "line_count": 2,
    "prefecture": "12",
    "ratings": null,
    "rent_avg": null,
    "transit_minutes": null
  },
  {
    "slug": "yoyogi-hachiman",
    "name_en": "Yoyogi-Hachiman",
    "name_jp": "代々木八幡",
    "lat": 35.669715,
    "lng": 139.688913,
    "lines": [
      "25001",
      "28005"
    ],
    "line_count": 2,
    "prefecture": "13",
    "ratings": null,
    "rent_avg": null,
    "transit_minutes": null
  },
  {
    "slug": "yoyogi-uehara",
    "name_en": "Yoyogi-Uehara",
    "name_jp": "代々木上原",
    "lat": 35.669159,
    "lng": 139.680153,
    "lines": [
      "25001",
      "28005"
    ],
    "line_count": 2,
    "prefecture": "13",
    "ratings": null,
    "rent_avg": null,
    "transit_minutes": null
  },
  {
    "slug": "yukari-ga-oka",
    "name_en": "Yukari-Ga-Oka",
    "name_jp": "ユーカリが丘",
    "lat": 35.721801,
    "lng": 140.156354,
    "lines": [
      "23001",
      "99313"
    ],
    "line_count": 2,
    "prefecture": "12",
    "ratings": null,
    "rent_avg": null,
    "transit_minutes": null
  },
  {
    "slug": "zoshigaya",
    "name_en": "Zoshigaya",
    "name_jp": "雑司が谷",
    "lat": 35.720233,
    "lng": 139.714795,
    "lines": [
      "28010",
      "99305"
    ],
    "line_count": 2,
    "prefecture": "13",
    "ratings": null,
    "rent_avg": null,
    "transit_minutes": null
  },
  {
    "slug": "adachi-odai",
    "name_en": "Adachi-Odai",
    "name_jp": "足立小台",
    "lat": 35.754658,
    "lng": 139.770381,
    "lines": [
      "99342"
    ],
    "line_count": 1,
    "prefecture": "13",
    "ratings": null,
    "rent_avg": null,
    "transit_minutes": null
  },
  {
    "slug": "ageo",
    "name_en": "Ageo",
    "name_jp": "上尾",
    "lat": 35.973522,
    "lng": 139.588434,
    "lines": [
      "11323"
    ],
    "line_count": 1,
    "prefecture": "11",
    "ratings": null,
    "rent_avg": null,
    "transit_minutes": null
  },
  {
    "slug": "agui",
    "name_en": "Agui",
    "name_jp": "安食",
    "lat": 35.835682,
    "lng": 140.242051,
    "lines": [
      "11327"
    ],
    "line_count": 1,
    "prefecture": "12",
    "ratings": null,
    "rent_avg": null,
    "transit_minutes": null
  },
  {
    "slug": "aihara",
    "name_en": "Aihara",
    "name_jp": "相原",
    "lat": 35.60694,
    "lng": 139.33169,
    "lines": [
      "11306"
    ],
    "line_count": 1,
    "prefecture": "13",
    "ratings": null,
    "rent_avg": null,
    "transit_minutes": null
  },
  {
    "slug": "aiko-ishida",
    "name_en": "Aiko-Ishida",
    "name_jp": "愛甲石田",
    "lat": 35.417634,
    "lng": 139.344098,
    "lines": [
      "25001"
    ],
    "line_count": 1,
    "prefecture": "14",
    "ratings": null,
    "rent_avg": null,
    "transit_minutes": null
  },
  {
    "slug": "akabanebashi",
    "name_en": "Akabanebashi",
    "name_jp": "赤羽橋",
    "lat": 35.655007,
    "lng": 139.743642,
    "lines": [
      "99301"
    ],
    "line_count": 1,
    "prefecture": "13",
    "ratings": null,
    "rent_avg": null,
    "transit_minutes": null
  },
  {
    "slug": "akasaka",
    "name_en": "Akasaka",
    "name_jp": "赤坂",
    "lat": 35.67323,
    "lng": 139.738348,
    "lines": [
      "28005"
    ],
    "line_count": 1,
    "prefecture": "13",
    "ratings": null,
    "rent_avg": null,
    "transit_minutes": null
  },
  {
    "slug": "akebonobashi",
    "name_en": "Akebonobashi",
    "name_jp": "曙橋",
    "lat": 35.692402,
    "lng": 139.722881,
    "lines": [
      "99304"
    ],
    "line_count": 1,
    "prefecture": "13",
    "ratings": null,
    "rent_avg": null,
    "transit_minutes": null
  },
  {
    "slug": "akigawa",
    "name_en": "Akigawa",
    "name_jp": "秋川",
    "lat": 35.727998,
    "lng": 139.286715,
    "lines": [
      "11316"
    ],
    "line_count": 1,
    "prefecture": "13",
    "ratings": null,
    "rent_avg": null,
    "transit_minutes": null
  },
  {
    "slug": "akira-shima",
    "name_en": "Akira-Shima",
    "name_jp": "昭島",
    "lat": 35.713305,
    "lng": 139.361564,
    "lines": [
      "11315"
    ],
    "line_count": 1,
    "prefecture": "13",
    "ratings": null,
    "rent_avg": null,
    "transit_minutes": null
  },
  {
    "slug": "akitsu",
    "name_en": "Akitsu",
    "name_jp": "秋津",
    "lat": 35.778614,
    "lng": 139.496539,
    "lines": [
      "22001"
    ],
    "line_count": 1,
    "prefecture": "13",
    "ratings": null,
    "rent_avg": null,
    "transit_minutes": null
  },
  {
    "slug": "akiyama",
    "name_en": "Akiyama",
    "name_jp": "秋山",
    "lat": 35.765299,
    "lng": 139.930723,
    "lines": [
      "99340"
    ],
    "line_count": 1,
    "prefecture": "12",
    "ratings": null,
    "rent_avg": null,
    "transit_minutes": null
  },
  {
    "slug": "an-zen",
    "name_en": "An-Zen",
    "name_jp": "安善",
    "lat": 35.499668,
    "lng": 139.700663,
    "lines": [
      "11304"
    ],
    "line_count": 1,
    "prefecture": "14",
    "ratings": null,
    "rent_avg": null,
    "transit_minutes": null
  },
  {
    "slug": "anabe",
    "name_en": "Anabe",
    "name_jp": "穴部",
    "lat": 35.279887,
    "lng": 139.148787,
    "lines": [
      "99314"
    ],
    "line_count": 1,
    "prefecture": "14",
    "ratings": null,
    "rent_avg": null,
    "transit_minutes": null
  },
  {
    "slug": "anagawa",
    "name_en": "Anagawa",
    "name_jp": "穴川",
    "lat": 35.639645,
    "lng": 140.111849,
    "lines": [
      "99332"
    ],
    "line_count": 1,
    "prefecture": "12",
    "ratings": null,
    "rent_avg": null,
    "transit_minutes": null
  },
  {
    "slug": "anamori-inari",
    "name_en": "Anamori-Inari",
    "name_jp": "穴守稲荷",
    "lat": 35.550326,
    "lng": 139.746669,
    "lines": [
      "27002"
    ],
    "line_count": 1,
    "prefecture": "13",
    "ratings": null,
    "rent_avg": null,
    "transit_minutes": null
  },
  {
    "slug": "ane-ke-saki",
    "name_en": "Ane-Ke-Saki",
    "name_jp": "姉ケ崎",
    "lat": 35.4786,
    "lng": 140.041749,
    "lines": [
      "11325"
    ],
    "line_count": 1,
    "prefecture": "12",
    "ratings": null,
    "rent_avg": null,
    "transit_minutes": null
  },
  {
    "slug": "anjin-tsuka",
    "name_en": "Anjin-Tsuka",
    "name_jp": "安針塚",
    "lat": 35.286641,
    "lng": 139.64292,
    "lines": [
      "27001"
    ],
    "line_count": 1,
    "prefecture": "14",
    "ratings": null,
    "rent_avg": null,
    "transit_minutes": null
  },
  {
    "slug": "ao-hori",
    "name_en": "Ao-Hori",
    "name_jp": "青堀",
    "lat": 35.330304,
    "lng": 139.858189,
    "lines": [
      "11325"
    ],
    "line_count": 1,
    "prefecture": "12",
    "ratings": null,
    "rent_avg": null,
    "transit_minutes": null
  },
  {
    "slug": "aobadai",
    "name_en": "Aobadai",
    "name_jp": "青葉台",
    "lat": 35.542855,
    "lng": 139.517376,
    "lines": [
      "26003"
    ],
    "line_count": 1,
    "prefecture": "14",
    "ratings": null,
    "rent_avg": null,
    "transit_minutes": null
  },
  {
    "slug": "aoi",
    "name_en": "Aoi",
    "name_jp": "青井",
    "lat": 35.771782,
    "lng": 139.82038,
    "lines": [
      "99309"
    ],
    "line_count": 1,
    "prefecture": "13",
    "ratings": null,
    "rent_avg": null,
    "transit_minutes": null
  },
  {
    "slug": "aomono-yokocho",
    "name_en": "Aomono-Yokocho",
    "name_jp": "青物横丁",
    "lat": 35.609351,
    "lng": 139.742958,
    "lines": [
      "27001"
    ],
    "line_count": 1,
    "prefecture": "13",
    "ratings": null,
    "rent_avg": null,
    "transit_minutes": null
  },
  {
    "slug": "arai-kusurishi-mae",
    "name_en": "Arai-Kusurishi-Mae",
    "name_jp": "新井薬師前",
    "lat": 35.715778,
    "lng": 139.672582,
    "lines": [
      "22007"
    ],
    "line_count": 1,
    "prefecture": "13",
    "ratings": null,
    "rent_avg": null,
    "transit_minutes": null
  },
  {
    "slug": "araijuku",
    "name_en": "Araijuku",
    "name_jp": "新井宿",
    "lat": 35.842974,
    "lng": 139.737908,
    "lines": [
      "99307"
    ],
    "line_count": 1,
    "prefecture": "11",
    "ratings": null,
    "rent_avg": null,
    "transit_minutes": null
  },
  {
    "slug": "arakawa-itchu-mae",
    "name_en": "Arakawa-Itchu-Mae",
    "name_jp": "荒川一中前",
    "lat": 35.733659,
    "lng": 139.788988,
    "lines": [
      "99305"
    ],
    "line_count": 1,
    "prefecture": "13",
    "ratings": null,
    "rent_avg": null,
    "transit_minutes": null
  },